[{"id":"33","title":"Circle K Bauska","code":"LV1747","working_monday":"00:00-24:00","working_tuesday":"00:00-24:00","working_wednesday":"00:00-24:00","working_thursday":"00:00-24:00","working_friday":"00:00-24:00","working_saturday":"00:00-24:00","working_sunday":"00:00-24:00","region":"Bauskas raj.","city":"Bauska","area":"Bauskas nov.","district":null,"village":null,"street":"Za\u013c\u0101 iela","house":"10","zipcode":"3901","address":"Za\u013c\u0101 iela 10, Bauska, Bauskas nov., LV-3901","lat":"56.4058974573","long":"24.1967040611","magento_region_id":"380","magento_region_code":"LV-BU","magento_region_name":"Bauskas novads","name_for_sorting":"Bauska"},{"id":"82","title":"Circle K Bergi","code":"LV1778","working_monday":"00:00-24:00","working_tuesday":"00:00-24:00","working_wednesday":"00:00-24:00","working_thursday":"00:00-24:00","working_friday":"00:00-24:00","working_saturday":"00:00-24:00","working_sunday":"00:00-24:00","region":"R\u012bgas raj.","city":null,"area":"Ropa\u017eu nov.","district":"Garkalnes pag.","village":"Ber\u0123i","street":null,"house":"R\u012bgas-Siguldas \u0161oseja 1","zipcode":"1024","address":"\"R\u012bgas-Siguldas \u0161oseja 1\", Ber\u0123i, Garkalnes pag., Ropa\u017eu nov., LV-1024","lat":"57.0054382328","long":"24.2915458871","magento_region_id":"438","magento_region_code":"Ropa\u017eu novads","magento_region_name":"Ropa\u017eu novads","name_for_sorting":"Ber\u0123i"},{"id":"88","title":"Circle K Grenctales","code":"LV1785","working_monday":"00:00-24:00","working_tuesday":"00:00-24:00","working_wednesday":"00:00-24:00","working_thursday":"00:00-24:00","working_friday":"00:00-24:00","working_saturday":"00:00-24:00","working_sunday":"00:00-24:00","region":"Bauskas raj.","city":null,"area":"Bauskas nov.","district":"Ceraukstes pag.","village":"Ceraukste","street":null,"house":"Ozolnieki","zipcode":"3908","address":"\"Ozolnieki\", Ceraukste, Ceraukstes pag., Bauskas nov., LV-3908","lat":"56.3659018251","long":"24.2800358894","magento_region_id":"380","magento_region_code":"LV-BU","magento_region_name":"Bauskas novads","name_for_sorting":"Ceraukste"},{"id":"41","title":"Circle K Cesis","code":"LV1756","working_monday":"00:00-24:00","working_tuesday":"00:00-24:00","working_wednesday":"00:00-24:00","working_thursday":"00:00-24:00","working_friday":"00:00-24:00","working_saturday":"00:00-24:00","working_sunday":"00:00-24:00","region":"C\u0113su raj.","city":"C\u0113sis","area":"C\u0113su nov.","district":null,"village":null,"street":"Piebalgas iela","house":"91","zipcode":"4101","address":"Piebalgas iela 91, C\u0113sis, C\u0113su nov., LV-4101","lat":"57.2984509214","long":"25.3005064459","magento_region_id":"387","magento_region_code":"LV-CE","magento_region_name":"C\u0113su novads","name_for_sorting":"C\u0113sis"},{"id":"238","title":"Circle K B\u0113rzkrogs","code":"LV1783","working_monday":"00:00-24:00","working_tuesday":"00:00-24:00","working_wednesday":"00:00-24:00","working_thursday":"00:00-24:00","working_friday":"00:00-24:00","working_saturday":"00:00-24:00","working_sunday":"00:00-24:00","region":"C\u0113su raj.","city":null,"area":"C\u0113su nov.","district":"Veselavas pag.","village":null,"street":null,"house":"Saulr\u012bti","zipcode":"4116","address":"\"Saulr\u012bti\", Veselavas pag., C\u0113su nov., LV-4116","lat":"57.2798560812","long":"25.4913091177","magento_region_id":"387","magento_region_code":"LV-CE","magento_region_name":"C\u0113su novads","name_for_sorting":"C\u0113su nov."},{"id":"67","title":"Circle K Daugavpils-2","code":"LV1727","working_monday":"00:00-24:00","working_tuesday":"00:00-24:00","working_wednesday":"00:00-24:00","working_thursday":"00:00-24:00","working_friday":"00:00-24:00","working_saturday":"00:00-24:00","working_sunday":"00:00-24:00","region":null,"city":"Daugavpils","area":null,"district":null,"village":null,"street":"Stacijas iela","house":"97A","zipcode":"5401","address":"Stacijas iela 97A, Daugavpils, LV-5401","lat":"55.8761368559","long":"26.5242561204","magento_region_id":"355","magento_region_code":"LV-DGV","magento_region_name":"Daugavpils","name_for_sorting":"Daugavpils"},{"id":"42","title":"Circle K Gulbene","code":"LV1758","working_monday":"00:00-24:00","working_tuesday":"00:00-24:00","working_wednesday":"00:00-24:00","working_thursday":"00:00-24:00","working_friday":"00:00-24:00","working_saturday":"00:00-24:00","working_sunday":"00:00-24:00","region":"Gulbenes raj.","city":"Gulbene","area":"Gulbenes nov.","district":null,"village":null,"street":"Br\u012bv\u012bbas iela","house":"89A","zipcode":"4401","address":"Br\u012bv\u012bbas iela 89A, Gulbene, Gulbenes nov., LV-4401","lat":"57.1775567846","long":"26.7425306376","magento_region_id":"396","magento_region_code":"LV-GU","magento_region_name":"Gulbenes novads","name_for_sorting":"Gulbene"},{"id":"34","title":"Circle K Talsi","code":"LV1748","working_monday":"00:00-24:00","working_tuesday":"00:00-24:00","working_wednesday":"00:00-24:00","working_thursday":"00:00-24:00","working_friday":"00:00-24:00","working_saturday":"00:00-24:00","working_sunday":"00:00-24:00","region":"Talsu raj.","city":null,"area":"Talsu nov.","district":"\u0122ibu\u013cu pag.","village":"Jaunzemes","street":null,"house":"Jaunratnieki","zipcode":"3201","address":"\"Jaunratnieki\", Jaunzemes, \u0122ibu\u013cu pag., Talsu nov., LV-3201","lat":"57.2331370475","long":"22.5838280013","magento_region_id":"456","magento_region_code":"LV-TA","magento_region_name":"Talsu novads","name_for_sorting":"Jaunzemes"},{"id":"38","title":"Circle K Jekabpils","code":"LV1752","working_monday":"00:00-24:00","working_tuesday":"00:00-24:00","working_wednesday":"00:00-24:00","working_thursday":"00:00-24:00","working_friday":"00:00-24:00","working_saturday":"00:00-24:00","working_sunday":"00:00-24:00","region":"J\u0113kabpils raj.","city":"J\u0113kabpils","area":"J\u0113kabpils nov.","district":null,"village":null,"street":"R\u012bgas iela","house":"218G","zipcode":"5202","address":"R\u012bgas iela 218G, J\u0113kabpils, J\u0113kabpils nov., LV-5202","lat":"56.5163771133","long":"25.8562997927","magento_region_id":"405","magento_region_code":"LV-JK","magento_region_name":"J\u0113kabpils novads","name_for_sorting":"J\u0113kabpils"},{"id":"35","title":"Circle K Jelgava-1","code":"LV1749","working_monday":"00:00-24:00","working_tuesday":"00:00-24:00","working_wednesday":"00:00-24:00","working_thursday":"00:00-24:00","working_friday":"00:00-24:00","working_saturday":"00:00-24:00","working_sunday":"00:00-24:00","region":null,"city":"Jelgava","area":null,"district":null,"village":null,"street":"Br\u012bv\u012bbas bulv\u0101ris","house":"1","zipcode":"3002","address":"Br\u012bv\u012bbas bulv\u0101ris 1, Jelgava, LV-3002","lat":"56.6572083833","long":"23.7429838571","magento_region_id":"356","magento_region_code":"LV-JEL","magento_region_name":"Jelgava","name_for_sorting":"Jelgava"},{"id":"30","title":"Circle K Kuldiga","code":"LV1743","working_monday":"00:00-24:00","working_tuesday":"00:00-24:00","working_wednesday":"00:00-24:00","working_thursday":"00:00-24:00","working_friday":"00:00-24:00","working_saturday":"00:00-24:00","working_sunday":"00:00-24:00","region":"Kuld\u012bgas raj.","city":"Kuld\u012bga","area":"Kuld\u012bgas nov.","district":null,"village":null,"street":"Gan\u012bbu iela","house":"22","zipcode":"3301","address":"Gan\u012bbu iela 22, Kuld\u012bga, Kuld\u012bgas nov., LV-3301","lat":"56.9581475802","long":"21.9919790619","magento_region_id":"411","magento_region_code":"LV-KU","magento_region_name":"Kuld\u012bgas novads","name_for_sorting":"Kuld\u012bga"},{"id":"77","title":"Circle K Liepaja-3","code":"LV1773","working_monday":"00:00-24:00","working_tuesday":"00:00-24:00","working_wednesday":"00:00-24:00","working_thursday":"00:00-24:00","working_friday":"00:00-24:00","working_saturday":"00:00-24:00","working_sunday":"00:00-24:00","region":null,"city":"Liep\u0101ja","area":null,"district":null,"village":null,"street":"Cukura iela","house":"3","zipcode":"3401","address":"Cukura iela 3, Liep\u0101ja, LV-3401","lat":"56.5345036045","long":"21.0558724341","magento_region_id":"359","magento_region_code":"LV-LPX","magento_region_name":"Liep\u0101ja","name_for_sorting":"Liep\u0101ja"},{"id":"44","title":"Circle K Limbazi","code":"LV1761","working_monday":"00:00-24:00","working_tuesday":"00:00-24:00","working_wednesday":"00:00-24:00","working_thursday":"00:00-24:00","working_friday":"00:00-24:00","working_saturday":"00:00-24:00","working_sunday":"00:00-24:00","region":"Limba\u017eu raj.","city":"Limba\u017ei","area":"Limba\u017eu nov.","district":null,"village":null,"street":"C\u0113su iela","house":"32","zipcode":"4001","address":"C\u0113su iela 32, Limba\u017ei, Limba\u017eu nov., LV-4001","lat":"57.5123524856","long":"24.7294711754","magento_region_id":"414","magento_region_code":"LV-LM","magento_region_name":"Limba\u017eu novads","name_for_sorting":"Limba\u017ei"},{"id":"26","title":"Circle K Madona","code":"LV1738","working_monday":"00:00-24:00","working_tuesday":"00:00-24:00","working_wednesday":"00:00-24:00","working_thursday":"00:00-24:00","working_friday":"00:00-24:00","working_saturday":"00:00-24:00","working_sunday":"00:00-24:00","region":"Madonas raj.","city":"Madona","area":"Madonas nov.","district":null,"village":null,"street":"Cesvaines iela","house":"10","zipcode":"4801","address":"Cesvaines iela 10, Madona, Madonas nov., LV-4801","lat":"56.859135161","long":"26.2293762019","magento_region_id":"419","magento_region_code":"LV-MA","magento_region_name":"Madonas novads","name_for_sorting":"Madona"},{"id":"76","title":"Circle K Marupe","code":"LV1770","working_monday":"00:00-24:00","working_tuesday":"00:00-24:00","working_wednesday":"00:00-24:00","working_thursday":"00:00-24:00","working_friday":"00:00-24:00","working_saturday":"00:00-24:00","working_sunday":"00:00-24:00","region":"R\u012bgas raj.","city":"M\u0101rupe","area":"M\u0101rupes nov.","district":null,"village":null,"street":"K\u0101r\u013ca Ulma\u0146a gatve","house":"127","zipcode":"2167","address":"K\u0101r\u013ca Ulma\u0146a gatve 127, M\u0101rupe, M\u0101rupes nov., LV-2167","lat":"56.9283311592","long":"24.0177474744","magento_region_id":"422","magento_region_code":"M\u0101rupes novads","magento_region_name":"M\u0101rupes novads","name_for_sorting":"M\u0101rupe"},{"id":"39","title":"Circle K Ogre","code":"LV1753","working_monday":"00:00-24:00","working_tuesday":"00:00-24:00","working_wednesday":"00:00-24:00","working_thursday":"00:00-24:00","working_friday":"00:00-24:00","working_saturday":"00:00-24:00","working_sunday":"00:00-24:00","region":"Ogres raj.","city":"Ogre","area":"Ogres nov.","district":null,"village":null,"street":"R\u012bgas iela","house":"19","zipcode":"5001","address":"R\u012bgas iela 19, Ogre, Ogres nov., LV-5001","lat":"56.8162083333","long":"24.5874802481","magento_region_id":"426","magento_region_code":"LV-OG","magento_region_name":"Ogres novads","name_for_sorting":"Ogre"},{"id":"230","title":"Circle K Lielv\u0101rde","code":"LV6508","working_monday":"05:00-24:00","working_tuesday":"05:00-24:00","working_wednesday":"05:00-24:00","working_thursday":"05:00-24:00","working_friday":"05:00-24:00","working_saturday":"05:00-24:00","working_sunday":"05:00-24:00","region":"Ogres raj.","city":null,"area":"Ogres nov.","district":"Jumpravas pag.","village":null,"street":null,"house":"Prie\u017ekalni 2","zipcode":"5022","address":"\"Prie\u017ekalni 2\", Jumpravas pag., Ogres nov., LV-5022","lat":"56.6627749208","long":"24.8967018085","magento_region_id":"426","magento_region_code":"LV-OG","magento_region_name":"Ogres novads","name_for_sorting":"Ogres nov."},{"id":"232","title":"Circle K T\u012bn\u016b\u017ei","code":"LV6518","working_monday":"00:00-24:00","working_tuesday":"00:00-24:00","working_wednesday":"00:00-24:00","working_thursday":"00:00-24:00","working_friday":"00:00-24:00","working_saturday":"00:00-24:00","working_sunday":"00:00-24:00","region":"Ogres raj.","city":null,"area":"Ogres nov.","district":"T\u012bn\u016b\u017eu pag.","village":null,"street":null,"house":"Aplis","zipcode":"5015","address":"\"Aplis\", T\u012bn\u016b\u017eu pag., Ogres nov., LV-5015","lat":"56.8579057173","long":"24.5637764558","magento_region_id":"426","magento_region_code":"LV-OG","magento_region_name":"Ogres novads","name_for_sorting":"Ogres nov."},{"id":"1","title":"Circle K Ulmanis 1","code":"LV1701","working_monday":"00:00-24:00","working_tuesday":"00:00-24:00","working_wednesday":"00:00-24:00","working_thursday":"00:00-24:00","working_friday":"00:00-24:00","working_saturday":"00:00-24:00","working_sunday":"00:00-24:00","region":null,"city":"R\u012bga","area":null,"district":null,"village":null,"street":"K\u0101r\u013ca Ulma\u0146a gatve","house":"110","zipcode":"1029","address":"K\u0101r\u013ca Ulma\u0146a gatve 110, R\u012bga, LV-1029","lat":"56.9344234905","long":"24.0063251662","magento_region_id":"362","magento_region_code":"LV-RIX","magento_region_name":"R\u012bga","name_for_sorting":"R\u012bga"},{"id":"2","title":"Circle K Krasta","code":"LV1702","working_monday":"00:00-24:00","working_tuesday":"00:00-24:00","working_wednesday":"00:00-24:00","working_thursday":"00:00-24:00","working_friday":"00:00-24:00","working_saturday":"00:00-24:00","working_sunday":"00:00-24:00","region":null,"city":"R\u012bga","area":null,"district":null,"village":null,"street":"Krasta iela","house":"101","zipcode":"1019","address":"Krasta iela 101, R\u012bga, LV-1019","lat":"56.9236322472","long":"24.1631059263","magento_region_id":"362","magento_region_code":"LV-RIX","magento_region_name":"R\u012bga","name_for_sorting":"R\u012bga"},{"id":"8","title":"Circle K Plavnieki-1","code":"LV1709","working_monday":"00:00-24:00","working_tuesday":"00:00-24:00","working_wednesday":"00:00-24:00","working_thursday":"00:00-24:00","working_friday":"00:00-24:00","working_saturday":"00:00-24:00","working_sunday":"00:00-24:00","region":null,"city":"R\u012bga","area":null,"district":null,"village":null,"street":"Katlakalna iela","house":"16","zipcode":"1073","address":"Katlakalna iela 16, R\u012bga, LV-1073","lat":"56.9310077709","long":"24.199362335","magento_region_id":"362","magento_region_code":"LV-RIX","magento_region_name":"R\u012bga","name_for_sorting":"R\u012bga"},{"id":"9","title":"Circle K Jugla","code":"LV1710","working_monday":"00:00-24:00","working_tuesday":"00:00-24:00","working_wednesday":"00:00-24:00","working_thursday":"00:00-24:00","working_friday":"00:00-24:00","working_saturday":"00:00-24:00","working_sunday":"00:00-24:00","region":null,"city":"R\u012bga","area":null,"district":null,"village":null,"street":"Juglas iela","house":"2C","zipcode":"1024","address":"Juglas iela 2C, R\u012bga, LV-1024","lat":"56.9892585049","long":"24.2436417867","magento_region_id":"362","magento_region_code":"LV-RIX","magento_region_name":"R\u012bga","name_for_sorting":"R\u012bga"},{"id":"23","title":"Circle K Sarkandaugava","code":"LV1731","working_monday":"00:00-24:00","working_tuesday":"00:00-24:00","working_wednesday":"00:00-24:00","working_thursday":"00:00-24:00","working_friday":"00:00-24:00","working_saturday":"00:00-24:00","working_sunday":"00:00-24:00","region":null,"city":"R\u012bga","area":null,"district":null,"village":null,"street":"Tvaika iela","house":"2A","zipcode":"1005","address":"Tvaika iela 2A, R\u012bga, LV-1005","lat":"56.9933719753","long":"24.1222916928","magento_region_id":"362","magento_region_code":"LV-RIX","magento_region_name":"R\u012bga","name_for_sorting":"R\u012bga"},{"id":"31","title":"Circle K Valdemara ","code":"LV1745","working_monday":"00:00-24:00","working_tuesday":"00:00-24:00","working_wednesday":"00:00-24:00","working_thursday":"00:00-24:00","working_friday":"00:00-24:00","working_saturday":"00:00-24:00","working_sunday":"00:00-24:00","region":null,"city":"R\u012bga","area":null,"district":null,"village":null,"street":"Kri\u0161j\u0101\u0146a Valdem\u0101ra iela","house":"104","zipcode":"1013","address":"Kri\u0161j\u0101\u0146a Valdem\u0101ra iela 104, R\u012bga, LV-1013","lat":"56.9710905393","long":"24.1343378178","magento_region_id":"362","magento_region_code":"LV-RIX","magento_region_name":"R\u012bga","name_for_sorting":"R\u012bga"},{"id":"32","title":"Circle K Milgravis","code":"LV1746","working_monday":"00:00-24:00","working_tuesday":"00:00-24:00","working_wednesday":"00:00-24:00","working_thursday":"00:00-24:00","working_friday":"00:00-24:00","working_saturday":"00:00-24:00","working_sunday":"00:00-24:00","region":null,"city":"R\u012bga","area":null,"district":null,"village":null,"street":"M\u012blgr\u0101vja iela","house":"10","zipcode":"1034","address":"M\u012blgr\u0101vja iela 10, R\u012bga, LV-1034","lat":"57.0237977963","long":"24.1378852418","magento_region_id":"362","magento_region_code":"LV-RIX","magento_region_name":"R\u012bga","name_for_sorting":"R\u012bga"},{"id":"46","title":"Circle K Mukusala","code":"LV1771","working_monday":"00:00-24:00","working_tuesday":"00:00-24:00","working_wednesday":"00:00-24:00","working_thursday":"00:00-24:00","working_friday":"00:00-24:00","working_saturday":"00:00-24:00","working_sunday":"00:00-24:00","region":null,"city":"R\u012bga","area":null,"district":null,"village":null,"street":"M\u016bkusalas iela","house":"75","zipcode":"1004","address":"M\u016bkusalas iela 75, R\u012bga, LV-1004","lat":"56.9218826262","long":"24.1083016917","magento_region_id":"362","magento_region_code":"LV-RIX","magento_region_name":"R\u012bga","name_for_sorting":"R\u012bga"},{"id":"60","title":"Circle K Ziepniekkalns","code":"LV1704","working_monday":"00:00-24:00","working_tuesday":"00:00-24:00","working_wednesday":"00:00-24:00","working_thursday":"00:00-24:00","working_friday":"00:00-24:00","working_saturday":"00:00-24:00","working_sunday":"00:00-24:00","region":null,"city":"R\u012bga","area":null,"district":null,"village":null,"street":"Ziepniekkalna iela","house":"9","zipcode":"1004","address":"Ziepniekkalna iela 9, R\u012bga, LV-1004","lat":"56.9123478304","long":"24.1228853784","magento_region_id":"362","magento_region_code":"LV-RIX","magento_region_name":"R\u012bga","name_for_sorting":"R\u012bga"},{"id":"61","title":"Circle K Ulmanis 2","code":"LV1705","working_monday":"00:00-24:00","working_tuesday":"00:00-24:00","working_wednesday":"00:00-24:00","working_thursday":"00:00-24:00","working_friday":"00:00-24:00","working_saturday":"00:00-24:00","working_sunday":"00:00-24:00","region":null,"city":"R\u012bga","area":null,"district":null,"village":null,"street":"K\u0101r\u013ca Ulma\u0146a gatve","house":"117","zipcode":"1029","address":"K\u0101r\u013ca Ulma\u0146a gatve 117, R\u012bga, LV-1029","lat":"56.9336374295","long":"24.0038259027","magento_region_id":"362","magento_region_code":"LV-RIX","magento_region_name":"R\u012bga","name_for_sorting":"R\u012bga"},{"id":"65","title":"Circle K Eksporta","code":"LV1723","working_monday":"00:00-24:00","working_tuesday":"00:00-24:00","working_wednesday":"00:00-24:00","working_thursday":"00:00-24:00","working_friday":"00:00-24:00","working_saturday":"00:00-24:00","working_sunday":"00:00-24:00","region":null,"city":"R\u012bga","area":null,"district":null,"village":null,"street":"Eksporta iela","house":"1C","zipcode":"1010","address":"Eksporta iela 1C, R\u012bga, LV-1010","lat":"56.9555385382","long":"24.0973579855","magento_region_id":"362","magento_region_code":"LV-RIX","magento_region_name":"R\u012bga","name_for_sorting":"R\u012bga"},{"id":"68","title":"Circle K Pernavas","code":"LV1728","working_monday":"00:00-24:00","working_tuesday":"00:00-24:00","working_wednesday":"00:00-24:00","working_thursday":"00:00-24:00","working_friday":"00:00-24:00","working_saturday":"00:00-24:00","working_sunday":"00:00-24:00","region":null,"city":"R\u012bga","area":null,"district":null,"village":null,"street":"P\u0113rnavas iela","house":"7","zipcode":"1012","address":"P\u0113rnavas iela 7, R\u012bga, LV-1012","lat":"56.9642960898","long":"24.1504008857","magento_region_id":"362","magento_region_code":"LV-RIX","magento_region_name":"R\u012bga","name_for_sorting":"R\u012bga"},{"id":"78","title":"Circle K Duntes","code":"LV1774","working_monday":"00:00-24:00","working_tuesday":"00:00-24:00","working_wednesday":"00:00-24:00","working_thursday":"00:00-24:00","working_friday":"00:00-24:00","working_saturday":"00:00-24:00","working_sunday":"00:00-24:00","region":null,"city":"R\u012bga","area":null,"district":null,"village":null,"street":"Duntes iela","house":"15","zipcode":"1005","address":"Duntes iela 15, R\u012bga, LV-1005","lat":"56.9817442483","long":"24.1356841757","magento_region_id":"362","magento_region_code":"LV-RIX","magento_region_name":"R\u012bga","name_for_sorting":"R\u012bga"},{"id":"79","title":"Circle K Daugava","code":"LV1775","working_monday":"06:00-23:00","working_tuesday":"06:00-23:00","working_wednesday":"06:00-23:00","working_thursday":"06:00-23:00","working_friday":"06:00-23:00","working_saturday":"06:00-23:00","working_sunday":"06:00-23:00","region":null,"city":"R\u012bga","area":null,"district":null,"village":null,"street":"Krasta iela","house":"47","zipcode":"1003","address":"Krasta iela 47, R\u012bga, LV-1003","lat":"56.9342086945","long":"24.1389416557","magento_region_id":"362","magento_region_code":"LV-RIX","magento_region_name":"R\u012bga","name_for_sorting":"R\u012bga"},{"id":"80","title":"Circle K Lido","code":"LV1776","working_monday":"00:00-24:00","working_tuesday":"00:00-24:00","working_wednesday":"00:00-24:00","working_thursday":"00:00-24:00","working_friday":"00:00-24:00","working_saturday":"00:00-24:00","working_sunday":"00:00-24:00","region":null,"city":"R\u012bga","area":null,"district":null,"village":null,"street":"Krasta iela","house":"70","zipcode":"1019","address":"Krasta iela 70, R\u012bga, LV-1019","lat":"56.9286155836","long":"24.1566613376","magento_region_id":"362","magento_region_code":"LV-RIX","magento_region_name":"R\u012bga","name_for_sorting":"R\u012bga"},{"id":"81","title":"Circle K Plavnieki-2","code":"LV1777","working_monday":"00:00-24:00","working_tuesday":"00:00-24:00","working_wednesday":"00:00-24:00","working_thursday":"00:00-24:00","working_friday":"00:00-24:00","working_saturday":"00:00-24:00","working_sunday":"00:00-24:00","region":null,"city":"R\u012bga","area":null,"district":null,"village":null,"street":"Lub\u0101nas iela","house":"119A","zipcode":"1021","address":"Lub\u0101nas iela 119A, R\u012bga, LV-1021","lat":"56.9321585061","long":"24.2028163384","magento_region_id":"362","magento_region_code":"LV-RIX","magento_region_name":"R\u012bga","name_for_sorting":"R\u012bga"},{"id":"86","title":"Circle K Br\u012bv\u012bbas\/C\u0113su","code":"LV1782","working_monday":"00:00-24:00","working_tuesday":"00:00-24:00","working_wednesday":"00:00-24:00","working_thursday":"00:00-24:00","working_friday":"00:00-24:00","working_saturday":"00:00-24:00","working_sunday":"00:00-24:00","region":null,"city":"R\u012bga","area":null,"district":null,"village":null,"street":"Br\u012bv\u012bbas iela","house":"176A","zipcode":"1012","address":"Br\u012bv\u012bbas iela 176A, R\u012bga, LV-1012","lat":"56.96624905","long":"24.1456405177","magento_region_id":"362","magento_region_code":"LV-RIX","magento_region_name":"R\u012bga","name_for_sorting":"R\u012bga"},{"id":"87","title":"Circle K Muitas","code":"LV1784","working_monday":"00:00-24:00","working_tuesday":"00:00-24:00","working_wednesday":"00:00-24:00","working_thursday":"00:00-24:00","working_friday":"00:00-24:00","working_saturday":"00:00-24:00","working_sunday":"00:00-24:00","region":null,"city":"R\u012bga","area":null,"district":null,"village":null,"street":"Muitas iela","house":"4","zipcode":"1010","address":"Muitas iela 4, R\u012bga, LV-1010","lat":"56.952584499","long":"24.1005965123","magento_region_id":"362","magento_region_code":"LV-RIX","magento_region_name":"R\u012bga","name_for_sorting":"R\u012bga"},{"id":"226","title":"Circle K Kalnciems","code":"LV1744","working_monday":"00:00-24:00","working_tuesday":"00:00-24:00","working_wednesday":"00:00-24:00","working_thursday":"00:00-24:00","working_friday":"00:00-24:00","working_saturday":"00:00-24:00","working_sunday":"00:00-24:00","region":null,"city":"R\u012bga","area":null,"district":null,"village":null,"street":"Kalnciema iela","house":"88","zipcode":"1046","address":"Kalnciema iela 88, R\u012bga, LV-1046","lat":"56.9373413499","long":"24.0478198564","magento_region_id":"362","magento_region_code":"LV-RIX","magento_region_name":"R\u012bga","name_for_sorting":"R\u012bga"},{"id":"236","title":"Circle K Krustpils","code":"LV1767","working_monday":"00:00-24:00","working_tuesday":"00:00-24:00","working_wednesday":"00:00-24:00","working_thursday":"00:00-24:00","working_friday":"00:00-24:00","working_saturday":"00:00-24:00","working_sunday":"00:00-24:00","region":null,"city":"R\u012bga","area":null,"district":null,"village":null,"street":"J\u0101\u0146av\u0101rtu iela","house":"21","zipcode":"1073","address":"J\u0101\u0146av\u0101rtu iela 21, R\u012bga, LV-1073","lat":"56.9235520848","long":"24.1887250095","magento_region_id":"362","magento_region_code":"LV-RIX","magento_region_name":"R\u012bga","name_for_sorting":"R\u012bga"},{"id":"40","title":"Circle K Salacgriva","code":"LV1754","working_monday":"00:00-24:00","working_tuesday":"00:00-24:00","working_wednesday":"00:00-24:00","working_thursday":"00:00-24:00","working_friday":"00:00-24:00","working_saturday":"00:00-24:00","working_sunday":"00:00-24:00","region":"Limba\u017eu raj.","city":"Salacgr\u012bva","area":"Limba\u017eu nov.","district":null,"village":null,"street":"Vi\u013c\u0146u iela","house":"4","zipcode":"4033","address":"Vi\u013c\u0146u iela 4, Salacgr\u012bva, Limba\u017eu nov., LV-4033","lat":"57.7570748764","long":"24.3623398612","magento_region_id":"414","magento_region_code":"LV-LM","magento_region_name":"Limba\u017eu novads","name_for_sorting":"Salacgr\u012bva"},{"id":"233","title":"Circle K Salaspils","code":"LV1766","working_monday":"00:00-24:00","working_tuesday":"00:00-24:00","working_wednesday":"00:00-24:00","working_thursday":"00:00-24:00","working_friday":"00:00-24:00","working_saturday":"00:00-24:00","working_sunday":"00:00-24:00","region":"R\u012bgas raj.","city":"Salaspils","area":"Salaspils nov.","district":null,"village":null,"street":"Nomet\u0146u iela","house":"1","zipcode":"2121","address":"Nomet\u0146u iela 1, Salaspils, Salaspils nov., LV-2121","lat":"56.8564961112","long":"24.3219474828","magento_region_id":"446","magento_region_code":"Salaspils novads","magento_region_name":"Salaspils novads","name_for_sorting":"Salaspils"},{"id":"227","title":"Circle K Saldus","code":"LV1764","working_monday":"00:00-24:00","working_tuesday":"00:00-24:00","working_wednesday":"00:00-24:00","working_thursday":"00:00-24:00","working_friday":"00:00-24:00","working_saturday":"00:00-24:00","working_sunday":"00:00-24:00","region":"Saldus raj.","city":"Saldus","area":"Saldus nov.","district":null,"village":null,"street":"Apvedce\u013c\u0161","house":"11","zipcode":"3801","address":"Apvedce\u013c\u0161 11, Saldus, Saldus nov., LV-3801","lat":"56.6823615683","long":"22.470994854","magento_region_id":"447","magento_region_code":"LV-SA","magento_region_name":"Saldus novads","name_for_sorting":"Saldus"},{"id":"43","title":"Circle K Adazi","code":"LV1759","working_monday":"00:00-24:00","working_tuesday":"00:00-24:00","working_wednesday":"00:00-24:00","working_thursday":"00:00-24:00","working_friday":"00:00-24:00","working_saturday":"00:00-24:00","working_sunday":"00:00-24:00","region":"R\u012bgas raj.","city":null,"area":"\u0100da\u017eu nov.","district":"\u0100da\u017eu pag.","village":"Stapri\u0146i","street":"Vidlauku iela","house":"1","zipcode":"2164","address":"Vidlauku iela 1, Stapri\u0146i, \u0100da\u017eu pag., \u0100da\u017eu nov., LV-2164","lat":"57.0692088674","long":"24.3167087453","magento_region_id":"471","magento_region_code":"\u0100da\u017eu novads","magento_region_name":"\u0100da\u017eu novads","name_for_sorting":"Stapri\u0146i"},{"id":"59","title":"Circle K Kandava","code":"LV1742","working_monday":"00:00-24:00","working_tuesday":"00:00-24:00","working_wednesday":"00:00-24:00","working_thursday":"00:00-24:00","working_friday":"00:00-24:00","working_saturday":"00:00-24:00","working_sunday":"00:00-24:00","region":"Tukuma raj.","city":null,"area":"Tukuma nov.","district":"Kandavas pag.","village":null,"street":null,"house":"Mazcuntes","zipcode":"3120","address":"\"Mazcuntes\", Kandavas pag., Tukuma nov., LV-3120","lat":"57.0672230398","long":"22.8173360018","magento_region_id":"457","magento_region_code":"LV-TU","magento_region_name":"Tukuma novads","name_for_sorting":"Tukuma nov."},{"id":"28","title":"Circle K Tukums","code":"LV1740","working_monday":"00:00-24:00","working_tuesday":"00:00-24:00","working_wednesday":"00:00-24:00","working_thursday":"00:00-24:00","working_friday":"00:00-24:00","working_saturday":"00:00-24:00","working_sunday":"00:00-24:00","region":"Tukuma raj.","city":"Tukums","area":"Tukuma nov.","district":null,"village":null,"street":"Me\u017ea iela","house":"30","zipcode":"3101","address":"Me\u017ea iela 30, Tukums, Tukuma nov., LV-3101","lat":"56.9702541306","long":"23.1684664437","magento_region_id":"457","magento_region_code":"LV-TU","magento_region_name":"Tukuma novads","name_for_sorting":"Tukums"},{"id":"237","title":"Circle K Apvedce\u013c\u0161","code":"LV1769","working_monday":"00:00-24:00","working_tuesday":"00:00-24:00","working_wednesday":"00:00-24:00","working_thursday":"00:00-24:00","working_friday":"00:00-24:00","working_saturday":"00:00-24:00","working_sunday":"00:00-24:00","region":"R\u012bgas raj.","city":null,"area":"Ropa\u017eu nov.","district":"Ropa\u017eu pag.","village":"\u016alupji","street":null,"house":"Laimes","zipcode":"2118","address":"\"Laimes\", \u016alupji, Ropa\u017eu pag., Ropa\u017eu nov., LV-2118","lat":"56.9437016389","long":"24.3805213057","magento_region_id":"438","magento_region_code":"Ropa\u017eu novads","magento_region_name":"Ropa\u017eu novads","name_for_sorting":"\u016alupji"},{"id":"64","title":"Circle K Valmiera 2","code":"LV1719","working_monday":"00:00-24:00","working_tuesday":"00:00-24:00","working_wednesday":"00:00-24:00","working_thursday":"00:00-24:00","working_friday":"00:00-24:00","working_saturday":"00:00-24:00","working_sunday":"00:00-24:00","region":"Valmieras raj.","city":"Valmiera","area":"Valmieras nov.","district":null,"village":null,"street":"Ausek\u013ca iela","house":"26","zipcode":"4201","address":"Ausek\u013ca iela 26, Valmiera, Valmieras nov., LV-4201","lat":"57.5304467582","long":"25.392412467","magento_region_id":"461","magento_region_code":"LV-VM","magento_region_name":"Valmieras novads","name_for_sorting":"Valmiera"},{"id":"7","title":"Circle K Ventspils","code":"LV1707","working_monday":"00:00-24:00","working_tuesday":"00:00-24:00","working_wednesday":"00:00-24:00","working_thursday":"00:00-24:00","working_friday":"00:00-24:00","working_saturday":"00:00-24:00","working_sunday":"00:00-24:00","region":null,"city":"Ventspils","area":null,"district":null,"village":null,"street":"R\u016bpniec\u012bbas iela","house":"4","zipcode":"3601","address":"R\u016bpniec\u012bbas iela 4, Ventspils, LV-3601","lat":"57.38522858","long":"21.585933021","magento_region_id":"365","magento_region_code":"LV-VEN","magento_region_name":"Ventspils","name_for_sorting":"Ventspils"}]