[{"id":"67001","code":"67001","label":"Lazdij\u0173 pa\u0161tas","address":"Senamies\u010dio g. 1, 67001 Lazdijai","village":"Lazdijai","area":"Alytaus","district":"Lazdij\u0173 r. sav.","street":"Senamies\u010dio g.","house":"1","apartment":"","zipcode":"67001","lat":"60.10753","long":"46.8691","name_for_sorting":"Alytaus","magento_region_id":"475","magento_region_code":"LT-AL","magento_region_name":"Alytaus Apskritis"},{"id":"65001","code":"65001","label":"Var\u0117nos pa\u0161tas","address":"Vytauto g. 21, Var\u0117na, 65001 Var\u0117nos r. sav","village":"Var\u0117na","area":"Alytaus","district":"Var\u0117nos r. sav.","street":"Vytauto g.","house":"21","apartment":"","zipcode":"65001","lat":"60.08464","long":"53.7178","name_for_sorting":"Alytaus","magento_region_id":"475","magento_region_code":"LT-AL","magento_region_name":"Alytaus Apskritis"},{"id":"67043","code":"67043","label":"Veisiej\u0173 pa\u0161tas","address":"Santarv\u0117s g. 3, Veisiejai, 67043 Lazdij\u0173 r. sav.","village":"Veisiejai","area":"Alytaus","district":"Lazdij\u0173 r. sav.","street":"Santarv\u0117s g.","house":"3","apartment":"","zipcode":"67043","lat":"59.95931","long":"47.9968","name_for_sorting":"Alytaus","magento_region_id":"475","magento_region_code":"LT-AL","magento_region_name":"Alytaus Apskritis"},{"id":"62020","code":"62020","label":"Alytaus Putin\u0173 pa\u0161tas","address":"\u016adrijos g. 1\/Naujoji g. 7E, 62020 Alytus","village":"Alytaus","area":"Alytus","district":"Alytus m. sav.","street":"\u016adrijos g.","house":"1\/7E","apartment":"","zipcode":"62020","lat":"60.30098","long":"50.1087","name_for_sorting":"Alytus","magento_region_id":"475","magento_region_code":"LT-AL","magento_region_name":"Alytaus Apskritis"},{"id":"64009","code":"64009","label":"Daug\u0173 pa\u0161tas","address":"Sofijos Smetonien\u0117s g. 3, Daugai, 64009 Alytaus r. sav.","village":"Daug\u0173","area":"Alytus","district":"Alytaus r. sav.","street":"Sofijos Smetonien\u0117s g.","house":"3","apartment":"","zipcode":"64009","lat":"60.25115","long":"52.2344","name_for_sorting":"Alytus","magento_region_id":"475","magento_region_code":"LT-AL","magento_region_name":"Alytaus Apskritis"},{"id":"66001","code":"66001","label":"Druskinink\u0173 pa\u0161tas","address":"M. K. \u010ciurlionio g. 111, 66001 Druskininkai ","village":"","area":"Alytus","district":"Druskinink\u0173 sav.","street":"M. K. \u010ciurlionio g.","house":"111","apartment":"","zipcode":"66001","lat":"59.85931","long":"49.9441","name_for_sorting":"Alytus","magento_region_id":"475","magento_region_code":"LT-AL","magento_region_name":"Alytaus Apskritis"},{"id":"64037","code":"64037","label":"Simno pa\u0161tas","address":"Vytauto g. 28, Simnas, 64037 Alytaus r. sav.","village":"Simno","area":"Alytus","district":"Alytaus r. sav.","street":"Vytauto g.","house":"28","apartment":"","zipcode":"64037","lat":"60.27282","long":"47.712","name_for_sorting":"Alytus","magento_region_id":"475","magento_region_code":"LT-AL","magento_region_name":"Alytaus Apskritis"},{"id":"62025","code":"62025","label":"Alytaus pa\u0161tas","address":"Naujoji g. 2C-1, 62025 Alytus","village":"Alytus","area":"Alytus","district":"Alytus m. sav.","street":"Naujoji g.","house":"2C","apartment":"1","zipcode":"62025","lat":"60.28839","long":"50.2327","name_for_sorting":"Alytus","magento_region_id":"475","magento_region_code":"LT-AL","magento_region_name":"Alytaus Apskritis"},{"id":"53067","code":"53067","label":"Akademijos pa\u0161tas, Kauno r. sav.","address":"Pil\u0117n\u0173 g. 1, Akademija, 53347 Kauno r. sav.","village":"Akademijos","area":"Kaunas","district":"Kaunas r. sav.","street":"Pil\u0117n\u0173 g.","house":"1","apartment":"","zipcode":"53067","lat":"60.8443","long":"48.8662","name_for_sorting":"Kaunas","magento_region_id":"476","magento_region_code":"LT-KU","magento_region_name":"Kauno Apskritis"},{"id":"60019","code":"60019","label":"Ariogalos pa\u0161tas","address":"Vytauto g. 102, Ariogala, 60019 Raseini\u0173 r. sav.","village":"Ariogala","area":"Kaunas","district":"Raseini\u0173 r. sav.","street":"Vytauto g.","house":"102","apartment":"","zipcode":"60019","lat":"61.25523","long":"46.6269","name_for_sorting":"Kaunas","magento_region_id":"476","magento_region_code":"LT-KU","magento_region_name":"Kauno Apskritis"},{"id":"59009","code":"59009","label":"Bir\u0161tono pa\u0161tas","address":"S. Dariaus ir S. Gir\u0117no g. 14, 59009 Bir\u0161tonas","village":"Bir\u0161tonas","area":"Kaunas","district":"Bir\u0161tono sav.","street":"S. Dariaus ir S. Gir\u0117no g.","house":"14","apartment":"","zipcode":"59009","lat":"60.51962","long":"50.1963","name_for_sorting":"Kaunas","magento_region_id":"476","magento_region_code":"LT-KU","magento_region_name":"Kauno Apskritis"},{"id":"54066","code":"54066","label":"Domeikavos pa\u0161tas","address":"Taikos g. 3, Domeikava, 54066 Kauno r. sav.","village":"Domeikava","area":"Kaunas","district":"Kaunas r. sav.","street":"Taikos g.","house":"3","apartment":"","zipcode":"54066","lat":"60.92354","long":"49.5141","name_for_sorting":"Kaunas","magento_region_id":"476","magento_region_code":"LT-KU","magento_region_name":"Kauno Apskritis"},{"id":"53079","code":"53079","label":"E\u017eer\u0117lio pa\u0161tas","address":"Liep\u0173 g. 3-8, E\u017eer\u0117lis, 53079 Kauno r. sav.","village":"E\u017eer\u0117lio","area":"Kaunas","district":"Kaunas r. sav.","street":"Liep\u0173 g.","house":"3","apartment":"8","zipcode":"53079","lat":"60.82925","long":"47.4172","name_for_sorting":"Kaunas","magento_region_id":"476","magento_region_code":"LT-KU","magento_region_name":"Kauno Apskritis"},{"id":"53030","code":"53030","label":"Garliavos pa\u0161tas","address":"Vytauto g. 60, Garliava, 53030 Kauno r. sav.","village":"Garliavos","area":"Kaunas","district":"Kaunas r. sav.","street":"Vytauto g.","house":"60","apartment":"","zipcode":"53030","lat":"60.76253","long":"49.1911","name_for_sorting":"Kaunas","magento_region_id":"476","magento_region_code":"LT-KU","magento_region_name":"Kauno Apskritis"},{"id":"59058","code":"59058","label":"Jiezno pa\u0161tas","address":"Vytauto g. 34, Jieznas, 59058 Prien\u0173 r. sav.","village":"Jieznas","area":"Kaunas","district":"Prien\u0173 r. sav.","street":"Vytauto g.","house":"34","apartment":"","zipcode":"59058","lat":"60.51582","long":"51.0814","name_for_sorting":"Kaunas","magento_region_id":"476","magento_region_code":"LT-KU","magento_region_name":"Kauno Apskritis"},{"id":"55001","code":"55001","label":"Jonavos pa\u0161tas","address":"\u017deimi\u0173 g. 11, 55001 Jonava","village":"Jonava","area":"Kaunas","district":"Jonavos r. sav.","street":"\u017deimi\u0173 g.","house":"11","apartment":"","zipcode":"55001","lat":"61.04274","long":"51.7575","name_for_sorting":"Kaunas","magento_region_id":"476","magento_region_code":"LT-KU","magento_region_name":"Kauno Apskritis"},{"id":"56001","code":"56001","label":"Kai\u0161iadori\u0173 pa\u0161tas","address":"Gedimino g. 61, 56001 Kai\u0161iadorys","village":"Kai\u0161iadorys","area":"Kaunas","district":"Kai\u0161iadori\u0161 r. sav.","street":"Gedimino g.","house":"61","apartment":"","zipcode":"56001","lat":"60.80743","long":"52.9324","name_for_sorting":"Kaunas","magento_region_id":"476","magento_region_code":"LT-KU","magento_region_name":"Kauno Apskritis"},{"id":"54085","code":"54085","label":"Karm\u0117lavos pa\u0161tas","address":"Vilniaus g. 54, Karm\u0117lava, 54085 Kauno r. sav.","village":"Karm\u0117lavos","area":"Kaunas","district":"Kaunas r. sav.","street":"Vilniaus g.","house":"54","apartment":"","zipcode":"54085","lat":"60.92648","long":"50.4165","name_for_sorting":"Kaunas","magento_region_id":"476","magento_region_code":"LT-KU","magento_region_name":"Kauno Apskritis"},{"id":"46001","code":"46001","label":"Kauno 10-asis pa\u0161tas","address":"J. Borutos g. 13, 46001 Kaunas","village":"Panemun\u0117s","area":"Kaunas","district":"Kaunas m. sav.","street":"J. Borutos g. ","house":"13","apartment":"","zipcode":"46001","lat":"60.78308","long":"49.6274","name_for_sorting":"Kaunas","magento_region_id":"476","magento_region_code":"LT-KU","magento_region_name":"Kauno Apskritis"},{"id":"52005","code":"52005","label":"Kauno 14-asis pa\u0161tas","address":"R. Kalantos g. 55, 52005 Kaunas","village":"Petra\u0161i\u016bn\u0173","area":"Kaunas","district":"Kaunas m. sav.","street":"R. Kalantos g.","house":"55","apartment":"","zipcode":"52005","lat":"60.84273","long":"49.9349","name_for_sorting":"Kaunas","magento_region_id":"476","magento_region_code":"LT-KU","magento_region_name":"Kauno Apskritis"},{"id":"45009","code":"45009","label":"Kauno 20-asis pa\u0161tas","address":"Did\u017eioji g. 82, 45009 Kaunas","village":"Panemun\u0117s","area":"Kaunas","district":"Kaunas m. sav.","street":"Did\u017eioji g.","house":"82","apartment":"","zipcode":"45009","lat":"60.79921","long":"50.0784","name_for_sorting":"Kaunas","magento_region_id":"476","magento_region_code":"LT-KU","magento_region_name":"Kauno Apskritis"},{"id":"48009","code":"48009","label":"Kauno 22-asis pa\u0161tas","address":"Baltijos g. 58, 48009 Kaunas","village":"\u0160ilaini\u0173","area":"Kaunas","district":"Kaunas m. sav.","street":"Baltijos g.","house":"58","apartment":"","zipcode":"48009","lat":"60.87164","long":"49.2242","name_for_sorting":"Kaunas","magento_region_id":"476","magento_region_code":"LT-KU","magento_region_name":"Kauno Apskritis"},{"id":"52001","code":"52001","label":"Kauno 23-iasis pa\u0161tas","address":"Pa\u0161to g. 1, 52001 Kaunas","village":"Petra\u0161i\u016bn\u0173","area":"Kaunas","district":"Kaunas m. sav.","street":"Pa\u0161to g.","house":"1","apartment":"","zipcode":"52001","lat":"60.86337","long":"50.4115","name_for_sorting":"Kaunas","magento_region_id":"476","magento_region_code":"LT-KU","magento_region_name":"Kauno Apskritis"},{"id":"48005","code":"48005","label":"Kauno 26-asis pa\u0161tas","address":"Varni\u0173 g. 41, 48005 Kaunas","village":"Vilijampol\u0117s","area":"Kaunas","district":"Kaunas m. sav.","street":"Varni\u0173 g.","house":"41","apartment":"","zipcode":"48005","lat":"60.60501","long":"49.5822","name_for_sorting":"Kaunas","magento_region_id":"476","magento_region_code":"LT-KU","magento_region_name":"Kauno Apskritis"},{"id":"48013","code":"48013","label":"Kauno 28-ojo pa\u0161to ketvirtasis poskyris","address":"\u017demai\u010di\u0173 pl. 23, 48013 Kaunas ","village":"\u0160ilaini\u0173","area":"Kaunas","district":"Kaunas m. sav.","street":"\u017demai\u010di\u0173 pl.","house":"23","apartment":"","zipcode":"48013","lat":"60.25206","long":"49.1627","name_for_sorting":"Kaunas","magento_region_id":"476","magento_region_code":"LT-KU","magento_region_name":"Kauno Apskritis"},{"id":"44033","code":"44033","label":"Kauno 28-ojo pa\u0161to tre\u010diasis poskyris","address":"Jonavos g. 3, 44033 Kaunas","village":"Centro","area":"Kaunas","district":"Kaunas m. sav.","street":"Jonavos g.","house":"3","apartment":"","zipcode":"44033","lat":"60.84974","long":"49.3061","name_for_sorting":"Kaunas","magento_region_id":"476","magento_region_code":"LT-KU","magento_region_name":"Kauno Apskritis"},{"id":"51001","code":"51001","label":"Kauno 31-asis pa\u0161tas","address":"Kovo 11-osios g. 20, 51001 Kaunas","village":"Gri\u010diupio","area":"Kaunas","district":"Kaunas m. sav.","street":"Kovo 11-osios g.","house":"20","apartment":"","zipcode":"51001","lat":"60.85458","long":"49.8369","name_for_sorting":"Kaunas","magento_region_id":"476","magento_region_code":"LT-KU","magento_region_name":"Kauno Apskritis"},{"id":"47019","code":"47019","label":"Kauno 39-asis pa\u0161tas","address":"Islandijos pl. 32, 47019 Kaunas","village":"Eiguli\u0173","area":"Kaunas","district":"Kaunas m. sav.","street":"Islandijos pl.","house":"32","apartment":"","zipcode":"47019","lat":"60.89306","long":"49.3172","name_for_sorting":"Kaunas","magento_region_id":"476","magento_region_code":"LT-KU","magento_region_name":"Kauno Apskritis"},{"id":"50019","code":"50019","label":"Kauno 41-asis pa\u0161tas","address":"V. Kr\u0117v\u0117s pr. 97A, 50019 Kaunas","village":"Dainavos","area":"Kaunas","district":"Kaunas m. sav.","street":"V. Kr\u0117v\u0117s pr.","house":"97A","apartment":"","zipcode":"50019","lat":"60.18746","long":"49.7271","name_for_sorting":"Kaunas","magento_region_id":"476","magento_region_code":"LT-KU","magento_region_name":"Kauno Apskritis"},{"id":"50027","code":"50027","label":"Kauno 41-ojo pa\u0161to poskyris","address":"V. Kr\u0117v\u0117s pr. 49, 50027 Kaunas","village":"Dainavos","area":"Kaunas","district":"Kaunas m. sav.","street":"V. Kr\u0117v\u0117s pr.","house":"49","apartment":"","zipcode":"50027","lat":"60.86972","long":"49.7993","name_for_sorting":"Kaunas","magento_region_id":"476","magento_region_code":"LT-KU","magento_region_name":"Kauno Apskritis"},{"id":"49001","code":"49001","label":"Kauno 43-iasis pa\u0161tas","address":"P. Luk\u0161io g. 58-1, 49001 Kaunas","village":"Eiguli\u0173","area":"Kaunas","district":"Kaunas m. sav.","street":"P. Luk\u0161io g.","house":"58","apartment":"1","zipcode":"49001","lat":"60.87861","long":"49.6726","name_for_sorting":"Kaunas","magento_region_id":"476","magento_region_code":"LT-KU","magento_region_name":"Kauno Apskritis"},{"id":"47009","code":"47009","label":"Kauno 8-asis pa\u0161tas","address":"Chodkevi\u010di\u0173 g. 6, 47009 Kaunas","village":"\u0160ilaini\u0173","area":"Kaunas","district":"Kaunas m. sav.","street":"Chodkevi\u010di\u0173 g.","house":"6","apartment":"","zipcode":"47009","lat":"60.88267","long":"48.8527","name_for_sorting":"Kaunas","magento_region_id":"476","magento_region_code":"LT-KU","magento_region_name":"Kauno Apskritis"},{"id":"50001","code":"50001","label":"Kauno 9-asis pa\u0161tas","address":"Savanori\u0173 pr. 214A, 50001 Kaunas","village":"Dainavos","area":"Kaunas","district":"Kaunas m. sav.","street":"Savanori\u0173 pr.","house":"214A","apartment":"","zipcode":"50001","lat":"60.86426","long":"49.6222","name_for_sorting":"Kaunas","magento_region_id":"476","magento_region_code":"LT-KU","magento_region_name":"Kauno Apskritis"},{"id":"57001","code":"57001","label":"K\u0117daini\u0173 pa\u0161tas","address":"J. Basanavi\u010diaus g. 59, 57001 K\u0117dainiai","village":"K\u0117dainiai","area":"Kaunas","district":"K\u0117daini\u0173 r. sav.","street":"J. Basanavi\u010diaus g.","house":"59","apartment":"","zipcode":"57001","lat":"61.27885","long":"49.8314","name_for_sorting":"Kaunas","magento_region_id":"476","magento_region_code":"LT-KU","magento_region_name":"Kauno Apskritis"},{"id":"54093","code":"54093","label":"Neveroni\u0173 pa\u0161tas","address":"\u0160iltnami\u0173 g. 1, Neveronys, 54093 Kauno r. sav.","village":"Neveroni\u0173","area":"Kaunas","district":"Kaunas r. sav.","street":"\u0160iltnami\u0173 g.","house":"1","apartment":"","zipcode":"54093","lat":"60.88281","long":"50.6367","name_for_sorting":"Kaunas","magento_region_id":"476","magento_region_code":"LT-KU","magento_region_name":"Kauno Apskritis"},{"id":"59001","code":"59001","label":"Prien\u0173 pa\u0161tas","address":"J. Brundzos g. 1, 59001 Prienai","village":"Prienai","area":"Kaunas","district":"Prien\u0173 r. sav.","street":"J. Brundzos g. ","house":"1","apartment":"","zipcode":"59001","lat":"60.55766","long":"49.6516","name_for_sorting":"Kaunas","magento_region_id":"476","magento_region_code":"LT-KU","magento_region_name":"Kauno Apskritis"},{"id":"60001","code":"60001","label":"Raseini\u0173 pa\u0161tas","address":"Maironio g. 2, 60001 Raseiniai","village":"Raseiniai","area":"Kaunas","district":"Raseini\u0173 r. sav.","street":"Maironio g.","house":"2","apartment":"","zipcode":"60001","lat":"61.45711","long":"44.2803","name_for_sorting":"Kaunas","magento_region_id":"476","magento_region_code":"LT-KU","magento_region_name":"Kauno Apskritis"},{"id":"54001","code":"54001","label":"Raudondvario pa\u0161tas","address":"Instituto g. 1A, Raudondvaris, 54001 Kauno r. sav.","village":"Raudondvario","area":"Kaunas","district":"Kaunas r. sav.","street":"Instituto g.","house":"1A","apartment":"","zipcode":"54001","lat":"60.89149","long":"48.5902","name_for_sorting":"Kaunas","magento_region_id":"476","magento_region_code":"LT-KU","magento_region_name":"Kauno Apskritis"},{"id":"54015","code":"54015","label":"Vilkijos pa\u0161tas","address":"Vytauto g. 1, Vilkija, 54015 Kauno r. sav.","village":"Vilkijos","area":"Kaunas","district":"Kaunas r. sav.","street":"Vytauto g.","house":"1","apartment":"","zipcode":"54015","lat":"61.00301","long":"47.3258","name_for_sorting":"Kaunas","magento_region_id":"476","magento_region_code":"LT-KU","magento_region_name":"Kauno Apskritis"},{"id":"56017","code":"56017","label":"\u017die\u017emari\u0173 pa\u0161tas","address":"\u017dasli\u0173 g. 5, \u017die\u017emariai, 56017 Kai\u0161iadori\u0173 r. sav.","village":"\u017die\u017emariai","area":"Kaunas","district":"Kai\u0161iadori\u0173 r. sav.","street":"\u017dasli\u0173 g.","house":"5","apartment":"","zipcode":"56017","lat":"60.7439","long":"52.8539","name_for_sorting":"Kaunas","magento_region_id":"476","magento_region_code":"LT-KU","magento_region_name":"Kauno Apskritis"},{"id":"44051","code":"44051","label":"Kauno 44-asis pa\u0161tas","address":"Karaliaus Mindaugo pr. 49, 44051 Kaunas","village":"Centro","area":"Kaunas","district":"Kaunas m. sav.","street":"Karaliaus Mindaugo pr.","house":"49","apartment":"","zipcode":"44051","lat":"60.83883","long":"49.4817","name_for_sorting":"Kaunas","magento_region_id":"476","magento_region_code":"LT-KU","magento_region_name":"Kauno Apskritis"},{"id":"46011","code":"46011","label":"Kauno Aleksoto pa\u0161tas","address":"Veiveri\u0173 g. 150 B, 46011 Kaunas","village":"Aleksoto","area":"Kaunas","district":"Kaunas m. sav.","street":"Veiveri\u0173 g.","house":"150B","apartment":"","zipcode":"46011","lat":"60.81044","long":"49.2694","name_for_sorting":"Kaunas","magento_region_id":"476","magento_region_code":"LT-KU","magento_region_name":"Kauno Apskritis"},{"id":"45010","code":"45010","label":"Kauno \u0160an\u010di\u0173 pa\u0161tas","address":"A. Juozapavi\u010diaus pr. 11, 45010 Kaunas","village":"\u0160an\u010di\u0173","area":"Kaunas","district":"Kaunas m. sav.","street":"A. Juozapavi\u010diaus pr.","house":"11","apartment":"","zipcode":"45010","lat":"60.81039","long":"49.6602","name_for_sorting":"Kaunas","magento_region_id":"476","magento_region_code":"LT-KU","magento_region_name":"Kauno Apskritis"},{"id":"48018","code":"48018","label":"Kauno Vilijampol\u0117s pa\u0161tas","address":"Raudondvario pl. 94B, 48018 Kaunas","village":"Vilijampol\u0117s","area":"Kaunas","district":"Kaunas m. sav.","street":"Raudondvario pl.","house":"94B","apartment":"","zipcode":"48018","lat":"60.85896","long":"49.1395","name_for_sorting":"Kaunas","magento_region_id":"476","magento_region_code":"LT-KU","magento_region_name":"Kauno Apskritis"},{"id":"96001","code":"96001","label":"Garg\u017ed\u0173 pa\u0161tas","address":"Kvietini\u0173 g. 4, Garg\u017edai, 96001 Klaip\u0117dos r. sav.","village":"Garg\u017ed\u0173","area":"Klaip\u0117dos","district":"Klaip\u0117dos r. sav.","street":"Kvietini\u0173 g.","house":"4","apartment":"","zipcode":"96001","lat":"61.78221","long":"33.668","name_for_sorting":"Klaip\u0117dos","magento_region_id":"477","magento_region_code":"LT-KL","magento_region_name":"Klaip\u0117dos Apskritis"},{"id":"95001","code":"95001","label":"Klaip\u0117dos 14-asis pa\u0161tas","address":"Vingio g. 16, 95001 Klaip\u0117da","village":"","area":"Klaip\u0117dos","district":"Klaip\u0117dos m. sav.","street":"Vingio g.","house":"16","apartment":"","zipcode":"95001","lat":"61.74375","long":"32.3303","name_for_sorting":"Klaip\u0117dos","magento_region_id":"477","magento_region_code":"LT-KL","magento_region_name":"Klaip\u0117dos Apskritis"},{"id":"92001","code":"92001","label":"Klaip\u0117dos 2-asis pa\u0161tas","address":"Taikos pr. 61, 92001 Klaip\u0117da","village":"","area":"Klaip\u0117dos","district":"Klaip\u0117dos m. sav.","street":"Taikos pr.","house":"61","apartment":"","zipcode":"92001","lat":"61.52191","long":"32.1227","name_for_sorting":"Klaip\u0117dos","magento_region_id":"477","magento_region_code":"LT-KL","magento_region_name":"Klaip\u0117dos Apskritis"},{"id":"92011","code":"92011","label":"Klaip\u0117dos 8-asis pa\u0161tas","address":"H.Manto g. 90-1, 92295 Klaip\u0117da","village":"","area":"Klaip\u0117dos","district":"Klaip\u0117dos m. sav.","street":"H.Manto g.","house":"90","apartment":"1","zipcode":"92011","lat":"61.80857","long":"31.9418","name_for_sorting":"Klaip\u0117dos","magento_region_id":"477","magento_region_code":"LT-KL","magento_region_name":"Klaip\u0117dos Apskritis"},{"id":"97001","code":"97001","label":"Kretingos pa\u0161tas","address":"Rotu\u0161\u0117s a. 10, 97001 Kretinga","village":"Kretingos miesto","area":"Klaip\u0117dos","district":"Kretingos r. sav.","street":"Rotu\u0161\u0117s a.","house":"10","apartment":"","zipcode":"97001","lat":"61.98322","long":"32.7474","name_for_sorting":"Klaip\u0117dos","magento_region_id":"477","magento_region_code":"LT-KL","magento_region_name":"Klaip\u0117dos Apskritis"},{"id":"93012","code":"93012","label":"Neringos pa\u0161tas","address":"Taikos g. 13, Nida, 93012 Neringos sav.","village":"","area":"Klaip\u0117dos","district":"Neringos sav.","street":"Taikos g.","house":"13","apartment":"","zipcode":"93012","lat":"61.33782","long":"30.969","name_for_sorting":"Klaip\u0117dos","magento_region_id":"477","magento_region_code":"LT-KL","magento_region_name":"Klaip\u0117dos Apskritis"},{"id":"96047","code":"96047","label":"Priekul\u0117s pa\u0161tas","address":"\u017dirg\u0173 g. 41, Priekul\u0117s II k., 96047 Klaip\u0117dos r. sav.","village":"Priekul\u0117s","area":"Klaip\u0117dos","district":"Klaip\u0117dos r. sav.","street":"\u017dirg\u0173 g.","house":"41","apartment":"","zipcode":"96047","lat":"61.40488","long":"33.8415","name_for_sorting":"Klaip\u0117dos","magento_region_id":"477","magento_region_code":"LT-KL","magento_region_name":"Klaip\u0117dos Apskritis"},{"id":"97035","code":"97035","label":"Salant\u0173 pa\u0161tas","address":"M. Valan\u010diaus g. 5, Salantai, 97035 Kretingos r. sav.","village":"Salantai","area":"Klaip\u0117dos","district":"Kretingos r. sav.","street":"M. Valan\u010diaus g. ","house":"5","apartment":"","zipcode":"97035","lat":"62.1663","long":"34.8694","name_for_sorting":"Klaip\u0117dos","magento_region_id":"477","magento_region_code":"LT-KL","magento_region_name":"Klaip\u0117dos Apskritis"},{"id":"98001","code":"98001","label":"Skuodo pa\u0161tas","address":"Gedimino g. 6, 98001 Skuodas","village":"Skuodas","area":"Klaip\u0117dos","district":"Skuodo r. sav.","street":"Gedimino g.","house":"6","apartment":"","zipcode":"98001","lat":"62.40141","long":"34.6954","name_for_sorting":"Klaip\u0117dos","magento_region_id":"477","magento_region_code":"LT-KL","magento_region_name":"Klaip\u0117dos Apskritis"},{"id":"99001","code":"99001","label":"\u0160ilut\u0117s pa\u0161tas","address":"Lietuvinink\u0173 g. 23\/ Gudobeli\u0173 a. 2, 99001 \u0160ilut\u0117","village":"\u0160ilut\u0117","area":"Klaip\u0117dos","district":"\u0160ilut\u0117s r. sav.","street":"Lietuvinink\u0173 g.","house":"23\/2","apartment":"","zipcode":"99001","lat":"61.37112","long":"33.9381","name_for_sorting":"Klaip\u0117dos","magento_region_id":"477","magento_region_code":"LT-KL","magento_region_name":"Klaip\u0117dos Apskritis"},{"id":"92030","code":"92030","label":"Klaip\u0117dos 17-asis pa\u0161tas","address":"Naujoji g. 29, Kalot\u0117s k., 92030 Klaip\u0117dos r. sav.","village":"Kretingal\u0117s","area":"Klaip\u0117dos","district":"Klaip\u0117dos r. sav.","street":"Naujoji g.","house":"29","apartment":"","zipcode":"92030","lat":"61.85967","long":"32.0385","name_for_sorting":"Klaip\u0117dos","magento_region_id":"477","magento_region_code":"LT-KL","magento_region_name":"Klaip\u0117dos Apskritis"},{"id":"91031","code":"91031","label":"Klaip\u0117dos 18-asis pa\u0161tas","address":"H.Manto g. 7, 91031 Klaip\u0117da","village":"","area":"Klaip\u0117dos","district":"Klaip\u0117dos m. sav.","street":"H.Manto g.","house":"7","apartment":"","zipcode":"91031","lat":"61.79149","long":"31.9691","name_for_sorting":"Klaip\u0117dos","magento_region_id":"477","magento_region_code":"LT-KL","magento_region_name":"Klaip\u0117dos Apskritis"},{"id":"94013","code":"94013","label":"Klaip\u0117dos 19-asis pa\u0161tas","address":"Taikos pr. 139, 94013 Klaip\u0117da","village":"","area":"Klaip\u0117dos","district":"Klaip\u0117dos m. sav.","street":"Taikos pr.","house":"139","apartment":"","zipcode":"94013","lat":"61.73695","long":"32.2354","name_for_sorting":"Klaip\u0117dos","magento_region_id":"477","magento_region_code":"LT-KL","magento_region_name":"Klaip\u0117dos Apskritis"},{"id":"00009","code":"00009","label":"Palangos 2-asis pa\u0161tas","address":"\u0160ventosios g. 14, 00009 Palanga","village":"","area":"Klaip\u0117dos","district":"Palangos m. sav.","street":"\u0160ventosios g.","house":"14","apartment":"","zipcode":"00009","lat":"62.14453","long":"31.8437","name_for_sorting":"Klaip\u0117dos","magento_region_id":"477","magento_region_code":"LT-KL","magento_region_name":"Klaip\u0117dos Apskritis"},{"id":"00001","code":"00001","label":"Palangos pa\u0161tas","address":"Mal\u016bno g. 10, 00001 Palanga","village":"","area":"Klaip\u0117dos","district":"Palangos m. sav.","street":"Mal\u016bno g.","house":"10","apartment":"","zipcode":"00001","lat":"62.02338","long":"31.739","name_for_sorting":"Klaip\u0117dos","magento_region_id":"477","magento_region_code":"LT-KL","magento_region_name":"Klaip\u0117dos Apskritis"},{"id":"71085","code":"71085","label":"Gelgaudi\u0161kio pa\u0161tas","address":"Taikos g. 76, Gelgaudi\u0161kis, 71085 \u0160aki\u0173 r. sav.","village":"Gelgaudi\u0161kio","area":"Marijampol\u0117s","district":"\u0160aki\u0173 r. sav.","street":"Taikos g.","house":"76","apartment":"","zipcode":"71085","lat":"61.0431","long":"43.5005","name_for_sorting":"Marijampol\u0117s","magento_region_id":"478","magento_region_code":"LT-MR","magento_region_name":"Marijampol\u0117s Apskritis"},{"id":"69030","code":"69030","label":"Kalvarijos pa\u0161tas","address":"Laisv\u0117s g. 1, 69030 Kalvarija ","village":"Kalvarijos","area":"Marijampol\u0117s","district":"Kalvarijos sav.","street":"Laisv\u0117s g.","house":"1","apartment":"","zipcode":"69030","lat":"60.311","long":"44.9876","name_for_sorting":"Marijampol\u0117s","magento_region_id":"478","magento_region_code":"LT-MR","magento_region_name":"Marijampol\u0117s Apskritis"},{"id":"69083","code":"69083","label":"Kazl\u0173 R\u016bdos pa\u0161tas","address":"J. Basanavi\u010diaus g. 6A, 69083 Kazl\u0173 R\u016bda","village":"Kazl\u0173 R\u016bdos","area":"Marijampol\u0117s","district":"Kazl\u0173 R\u016bdos sav.","street":"J. Basanavi\u010diaus g.","house":"6A","apartment":"","zipcode":"69083","lat":"60.68594","long":"46.7292","name_for_sorting":"Marijampol\u0117s","magento_region_id":"478","magento_region_code":"LT-MR","magento_region_name":"Marijampol\u0117s Apskritis"},{"id":"70065","code":"70065","label":"Kybart\u0173 pa\u0161tas","address":"J. Basanavi\u010diaus g. 33, Kybartai, 70065 Vilkavi\u0161kio r. sav.","village":"Kybart\u0173","area":"Marijampol\u0117s","district":"Vilkavi\u0161kio r. sav.","street":"J. Basanavi\u010diaus g.","house":"33","apartment":"","zipcode":"70065","lat":"60.56552","long":"41.9998","name_for_sorting":"Marijampol\u0117s","magento_region_id":"478","magento_region_code":"LT-MR","magento_region_name":"Marijampol\u0117s Apskritis"},{"id":"71049","code":"71049","label":"Kudirkos Naumies\u010dio pa\u0161tas","address":"S. Dariaus ir S. Gir\u0117no g. 26, Kudirkos Naumiestis, 71049 \u0160aki\u0173 r. sav.","village":"Kudirkos Naumies\u010dio","area":"Marijampol\u0117s","district":"\u0160aki\u0173 r. sav.","street":"S. Dariaus ir S. Gir\u0117no g.","house":"26","apartment":"","zipcode":"71049","lat":"60.71529","long":"42.6875","name_for_sorting":"Marijampol\u0117s","magento_region_id":"478","magento_region_code":"LT-MR","magento_region_name":"Marijampol\u0117s Apskritis"},{"id":"68001","code":"68001","label":"Marijampol\u0117s centrinis pa\u0161tas","address":"V. Kudirkos g. 3, 68001 Marijampol\u0117","village":"Degu\u010di\u0173","area":"Marijampol\u0117s","district":"Marijampol\u0117s sav.","street":"V. Kudirkos g. ","house":"3","apartment":"","zipcode":"68001","lat":"60.47186","long":"45.8237","name_for_sorting":"Marijampol\u0117s","magento_region_id":"478","magento_region_code":"LT-MR","magento_region_name":"Marijampol\u0117s Apskritis"},{"id":"71001","code":"71001","label":"\u0160aki\u0173 pa\u0161tas","address":"Birut\u0117s g. 14, 71001 \u0160akiai","village":"\u0160aki\u0173","area":"Marijampol\u0117s","district":"\u0160aki\u0173 r. sav.","street":"Birut\u0117s g.","house":"14","apartment":"","zipcode":"71001","lat":"60.1052","long":"43.9107","name_for_sorting":"Marijampol\u0117s","magento_region_id":"478","magento_region_code":"LT-MR","magento_region_name":"Marijampol\u0117s Apskritis"},{"id":"70001","code":"70001","label":"Vilkavi\u0161kio pa\u0161tas","address":"S. Daukanto g. 31, 70001 Vilkavi\u0161kis","village":"Vilkavi\u0161kio","area":"Marijampol\u0117s","district":"Vilkavi\u0161kio r. sav.","street":"S. Daukanto g.","house":"31","apartment":"","zipcode":"70001","lat":"60.57075","long":"43.781","name_for_sorting":"Marijampol\u0117s","magento_region_id":"478","magento_region_code":"LT-MR","magento_region_name":"Marijampol\u0117s Apskritis"},{"id":"39027","code":"39027","label":"Joni\u0161k\u0117lio pa\u0161tas","address":"Vytauto g. 21, Joni\u0161k\u0117lis, 39027 Pasvalio r. sav.","village":"Joni\u0161k\u0117lio miesto","area":"Panev\u0117\u017eio","district":"Pasvalio r. sav.","street":"Vytauto g.","house":"21","apartment":"","zipcode":"39027","lat":"62.09904","long":"51.05","name_for_sorting":"Panev\u0117\u017eio","magento_region_id":"479","magento_region_code":"LT-PN","magento_region_name":"Panev\u0117\u017eio Apskritis"},{"id":"40001","code":"40001","label":"Kupi\u0161kio pa\u0161tas","address":"Vytauto g. 41, 40001 Kupi\u0161kis","village":"Kupi\u0161kio","area":"Panev\u0117\u017eio","district":"Kupi\u0161kio r. sav.","street":"Vytauto g.","house":"41","apartment":"","zipcode":"40001","lat":"61.89924","long":"56.1743","name_for_sorting":"Panev\u0117\u017eio","magento_region_id":"479","magento_region_code":"LT-PN","magento_region_name":"Panev\u0117\u017eio Apskritis"},{"id":"42006","code":"42006","label":"Obeli\u0173 pa\u0161tas","address":"Vytauto g. 12, Obeliai, 42006 Roki\u0161kio r. sav.","village":"Obeli\u0173","area":"Panev\u0117\u017eio","district":"Roki\u0161kio r. sav.","street":"Vytauto g.","house":"12","apartment":"","zipcode":"42006","lat":"62.02046","long":"61.2196","name_for_sorting":"Panev\u0117\u017eio","magento_region_id":"479","magento_region_code":"LT-PN","magento_region_name":"Panev\u0117\u017eio Apskritis"},{"id":"36001","code":"36001","label":"Panev\u0117\u017eio 1-asis pa\u0161tas","address":"\u017demai\u010di\u0173 g. 21, 36001 Panev\u0117\u017eys","village":"","area":"Panev\u0117\u017eio","district":"Panev\u0117\u017eio m. sav.","street":"\u017demai\u010di\u0173 g.","house":"21","apartment":"","zipcode":"36001","lat":"61.76651","long":"52.3986","name_for_sorting":"Panev\u0117\u017eio","magento_region_id":"479","magento_region_code":"LT-PN","magento_region_name":"Panev\u0117\u017eio Apskritis"},{"id":"37001","code":"37001","label":"Panev\u0117\u017eio 5-asis pa\u0161tas","address":"Klaip\u0117dos g. 82, 37001 Panev\u0117\u017eys ","village":"","area":"Panev\u0117\u017eio","district":"Panev\u0117\u017eio m. sav.","street":"Klaip\u0117dos g.","house":"82","apartment":"","zipcode":"37001","lat":"61.77156","long":"52.1476","name_for_sorting":"Panev\u0117\u017eio","magento_region_id":"479","magento_region_code":"LT-PN","magento_region_name":"Panev\u0117\u017eio Apskritis"},{"id":"37010","code":"37010","label":"Panev\u0117\u017eio 6-asis pa\u0161tas","address":"Ro\u017ei\u0173 g. 25, 37010 Panev\u0117\u017eys","village":"","area":"Panev\u0117\u017eio","district":"Panev\u0117\u017eio m. sav.","street":"Ro\u017ei\u0173 g.","house":"25","apartment":"","zipcode":"37010","lat":"61.7948","long":"52.2861","name_for_sorting":"Panev\u0117\u017eio","magento_region_id":"479","magento_region_code":"LT-PN","magento_region_name":"Panev\u0117\u017eio Apskritis"},{"id":"39001","code":"39001","label":"Pasvalio pa\u0161tas","address":"Vilniaus g. 3, 39001 Pasvalys","village":"Pasvalio miesto","area":"Panev\u0117\u017eio","district":"Pasvalio r. sav.","street":"Vilniaus g.","house":"3","apartment":"","zipcode":"39001","lat":"62.14242","long":"52.4984","name_for_sorting":"Panev\u0117\u017eio","magento_region_id":"479","magento_region_code":"LT-PN","magento_region_name":"Panev\u0117\u017eio Apskritis"},{"id":"38031","code":"38031","label":"Ramygalos pa\u0161tas","address":"S. Dariaus ir S. Gir\u0117no g. 3, Ramygala, 38031 Panev\u0117\u017eio r. sav.","village":"Ramygalos","area":"Panev\u0117\u017eio","district":"Panev\u0117\u017eio r. sav.","street":"S. Dariaus ir S. Gir\u0117no g.","house":"3","apartment":"","zipcode":"38031","lat":"61.52745","long":"51.9158","name_for_sorting":"Panev\u0117\u017eio","magento_region_id":"479","magento_region_code":"LT-PN","magento_region_name":"Panev\u0117\u017eio Apskritis"},{"id":"42001","code":"42001","label":"Roki\u0161kio pa\u0161tas","address":"Respublikos g. 113A, 42001 Roki\u0161kis","village":"Roki\u0161kio miesto","area":"Panev\u0117\u017eio","district":"Roki\u0161kio r. sav.","street":"Respublikos g.","house":"113A","apartment":"","zipcode":"42001","lat":"62.03063","long":"59.9301","name_for_sorting":"Panev\u0117\u017eio","magento_region_id":"479","magento_region_code":"LT-PN","magento_region_name":"Panev\u0117\u017eio Apskritis"},{"id":"40033","code":"40033","label":"Suba\u010diaus pa\u0161tas","address":"Bir\u017e\u0173 g. 19, Suba\u010dius, 40033 Kupi\u0161kio r. sav.","village":"Suba\u010diaus","area":"Panev\u0117\u017eio","district":"Kupi\u0161kio r. sav.","street":"Bir\u017e\u0173 g.","house":"19","apartment":"","zipcode":"40033","lat":"61.81968","long":"54.6752","name_for_sorting":"Panev\u0117\u017eio","magento_region_id":"479","magento_region_code":"LT-PN","magento_region_name":"Panev\u0117\u017eio Apskritis"},{"id":"42071","code":"42071","label":"Pand\u0117lio pa\u0161to agentas","address":"Klaip\u0117dos g. 2A, Pand\u0117lys, Roki\u0161kio r. sav.","village":"Pand\u0117lio","area":"Panev\u0117\u017eio","district":"Roki\u0161kio r. sav.","street":"Klaip\u0117dos g.","house":"2A","apartment":"","zipcode":"42071","lat":"62.10425","long":"57.6456","name_for_sorting":"Panev\u0117\u017eio","magento_region_id":"479","magento_region_code":"LT-PN","magento_region_name":"Panev\u0117\u017eio Apskritis"},{"id":"36014","code":"36014","label":"Panev\u0117\u017eio Basanavi\u010diaus pa\u0161tas","address":"Ukmerg\u0117s g. 18, 36014 Panev\u0117\u017eys","village":"","area":"Panev\u0117\u017eio","district":"Panev\u0117\u017eio m. sav.","street":"Ukmerg\u0117s g.","house":"18","apartment":"","zipcode":"36014","lat":"61.77097","long":"52.3005","name_for_sorting":"Panev\u0117\u017eio","magento_region_id":"479","magento_region_code":"LT-PN","magento_region_name":"Panev\u0117\u017eio Apskritis"},{"id":"37015","code":"37015","label":"Panev\u0117\u017eio PC RYO pa\u0161tas","address":"Saviti\u0161kio g. 61, 37015 Panev\u0117\u017eys","village":"","area":"Panev\u0117\u017eio","district":"Panev\u0117\u017eio m. sav.","street":"Saviti\u0161kio g.","house":"61","apartment":"","zipcode":"37015","lat":"61.77229","long":"51.9677","name_for_sorting":"Panev\u0117\u017eio","magento_region_id":"479","magento_region_code":"LT-PN","magento_region_name":"Panev\u0117\u017eio Apskritis"},{"id":"41001","code":"41001","label":"Bir\u017e\u0173 pa\u0161tas","address":"J. Basanavi\u010diaus g. 1, 41001 Bir\u017eai","village":"Bir\u017e\u0173 miesto","area":"Panev\u0117\u017eys","district":"Bir\u017e\u0173 r. sav.","street":"J. Basanavi\u010diaus g. ","house":"1","apartment":"","zipcode":"41001","lat":"62.30481","long":"54.714","name_for_sorting":"Panev\u0117\u017eys","magento_region_id":"479","magento_region_code":"LT-PN","magento_region_name":"Panev\u0117\u017eio Apskritis"},{"id":"41033","code":"41033","label":"Vabalninko pa\u0161tas","address":"B. Sruogos g. 11A, Vabalninkas, 41033 Bir\u017e\u0173 r. sav.","village":"Vabalninkas","area":"Panev\u0117\u017eys","district":"Bir\u017e\u0173 r. sav.","street":"B. Sruogos g.","house":"11A","apartment":"","zipcode":"41033","lat":"62.96213","long":"54.3032","name_for_sorting":"Panev\u0117\u017eys","magento_region_id":"479","magento_region_code":"LT-PN","magento_region_name":"Panev\u0117\u017eio Apskritis"},{"id":"85022","code":"85022","label":"Akmen\u0117s pa\u0161tas","address":"K. Kasakausko g. 7, Akmen\u0117, 85022 Akmen\u0117s r. sav. ","village":"Akmen\u0117s","area":"\u0160iauli\u0173","district":"Akmen\u0117 r. sav.","street":"K. Kasakausko g.","house":"7","apartment":"","zipcode":"85022","lat":"62.35335","long":"42.2481","name_for_sorting":"\u0160iauli\u0173","magento_region_id":"480","magento_region_code":"LT-SA","magento_region_name":"\u0160iauli\u0173 Apskritis"},{"id":"84001","code":"84001","label":"Joni\u0161kio pa\u0161tas","address":"Miesto a. 2, 84001 Joni\u0161kis","village":"Joni\u0161kio","area":"\u0160iauli\u0173","district":"Joni\u0161kio r. sav.","street":"Miesto a.","house":"2","apartment":"","zipcode":"84001","lat":"62.34069","long":"47.6245","name_for_sorting":"\u0160iauli\u0173","magento_region_id":"480","magento_region_code":"LT-SA","magento_region_name":"\u0160iauli\u0173 Apskritis"},{"id":"86001","code":"86001","label":"Kelm\u0117s pa\u0161tas","address":"Vytauto Did\u017eiojo g. 86, 86001 Kelm\u0117","village":"Kelm\u0117s","area":"\u0160iauli\u0173","district":"Kelm\u0117s r. sav.","street":"Vytauto Did\u017eiojo g.","house":"86","apartment":"","zipcode":"86001","lat":"61.66792","long":"43.3014","name_for_sorting":"\u0160iauli\u0173","magento_region_id":"480","magento_region_code":"LT-SA","magento_region_name":"\u0160iauli\u0173 Apskritis"},{"id":"81001","code":"81001","label":"Kur\u0161\u0117n\u0173 pa\u0161tas","address":"Vilniaus g. 3, Kur\u0161\u0117nai, 81001 \u0160iauli\u0173 r. sav. ","village":"Kur\u0161\u0117n\u0173 miesto","area":"\u0160iauli\u0173","district":"\u0160iauli\u0173 r. sav.","street":"Vilniaus g.","house":"3","apartment":"","zipcode":"81001","lat":"62.08068","long":"43.3843","name_for_sorting":"\u0160iauli\u0173","magento_region_id":"480","magento_region_code":"LT-SA","magento_region_name":"\u0160iauli\u0173 Apskritis"},{"id":"83046","code":"83046","label":"Linkuvos pa\u0161tas","address":"Vienyb\u0117s a. 7, Linkuva, 83046 Pakruojo r. sav.","village":"Linkuvos","area":"\u0160iauli\u0173","district":"Pakruojo r. sav.","street":"Vienyb\u0117s a.","house":"7","apartment":"","zipcode":"83046","lat":"62.16776","long":"49.8252","name_for_sorting":"\u0160iauli\u0173","magento_region_id":"480","magento_region_code":"LT-SA","magento_region_name":"\u0160iauli\u0173 Apskritis"},{"id":"85001","code":"85001","label":"Naujosios Akmen\u0117s pa\u0161tas","address":"L. Petravi\u010diaus a. 3, 85001 Naujoji Akmen\u0117","village":"Naujosios Akmen\u0117s miesto","area":"\u0160iauli\u0173","district":"Akmen\u0117 r. sav.","street":"L. Petravi\u010diaus a.","house":"3","apartment":"","zipcode":"85001","lat":"62.43747","long":"43.0777","name_for_sorting":"\u0160iauli\u0173","magento_region_id":"480","magento_region_code":"LT-SA","magento_region_name":"\u0160iauli\u0173 Apskritis"},{"id":"83001","code":"83001","label":"Pakruojo pa\u0161tas","address":"Vytauto Did\u017eiojo g. 17, 83001 Pakruojis","village":"Pakruojo","area":"\u0160iauli\u0173","district":"Pakruojo r. sav.","street":"Vytauto Did\u017eiojo g.","house":"17","apartment":"","zipcode":"83001","lat":"62.04833","long":"49.0384","name_for_sorting":"\u0160iauli\u0173","magento_region_id":"480","magento_region_code":"LT-SA","magento_region_name":"\u0160iauli\u0173 Apskritis"},{"id":"82001","code":"82001","label":"Radvili\u0161kio pa\u0161tas","address":"S. Dariaus ir S. Gir\u0117no g. 16, Radvili\u0161kis, 82001 Radvili\u0161kio r. sav.","village":"Radvili\u0161kio miesto","area":"\u0160iauli\u0173","district":"Radvili\u0161kio r. sav.","street":"S. Dariaus ir S. Gir\u0117no g.","house":"16","apartment":"","zipcode":"82001","lat":"61.86143","long":"47.1092","name_for_sorting":"\u0160iauli\u0173","magento_region_id":"480","magento_region_code":"LT-SA","magento_region_name":"\u0160iauli\u0173 Apskritis"},{"id":"82007","code":"82007","label":"\u0160eduvos pa\u0161tas","address":"Laisv\u0117s a. 8, \u0160eduva, 82007 Radvili\u0161kio r. sav.","village":"\u0160eduvos miesto","area":"\u0160iauli\u0173","district":"Radvili\u0161kio r. sav.","street":"Laisv\u0117s a.","house":"8","apartment":"","zipcode":"82007","lat":"61.80027","long":"48.4752","name_for_sorting":"\u0160iauli\u0173","magento_region_id":"480","magento_region_code":"LT-SA","magento_region_name":"\u0160iauli\u0173 Apskritis"},{"id":"76028","code":"76028","label":"\u0160iauli\u0173 15-asis pa\u0161tas","address":"Til\u017e\u0117s g. 109, 76028 \u0160iauliai","village":"","area":"\u0160iauli\u0173","district":"\u0160iauli\u0173 m. sav.","street":"Til\u017e\u0117s g.","house":"109","apartment":"","zipcode":"76028","lat":"61.99541","long":"45.6785","name_for_sorting":"\u0160iauli\u0173","magento_region_id":"480","magento_region_code":"LT-SA","magento_region_name":"\u0160iauli\u0173 Apskritis"},{"id":"78014","code":"78014","label":"\u0160iauli\u0173 16-asis pa\u0161tas","address":"Aido g. 8, 78014 \u0160iauliai","village":"","area":"\u0160iauli\u0173","district":"\u0160iauli\u0173 m. sav.","street":"Aido g.","house":"8","apartment":"","zipcode":"78014","lat":"61.37406","long":"45.2803","name_for_sorting":"\u0160iauli\u0173","magento_region_id":"480","magento_region_code":"LT-SA","magento_region_name":"\u0160iauli\u0173 Apskritis"},{"id":"86061","code":"86061","label":"Tytuv\u0117n\u0173 pa\u0161tas","address":"Maironio g. 1, Tytuv\u0117nai, 86061 Kelm\u0117s r. sav. ","village":"Tytuv\u0117n\u0173","area":"\u0160iauli\u0173","district":"Kelm\u0117s r. sav.","street":"Maironio g.","house":"1","apartment":"","zipcode":"86061","lat":"61.62755","long":"44.9457","name_for_sorting":"\u0160iauli\u0173","magento_region_id":"480","magento_region_code":"LT-SA","magento_region_name":"\u0160iauli\u0173 Apskritis"},{"id":"86036","code":"86036","label":"U\u017even\u010dio pa\u0161tas","address":"\u017demait\u0117s g. 1, U\u017eventis, 86036 Kelm\u0117s r. sav. ","village":"U\u017even\u010dio","area":"\u0160iauli\u0173","district":"Kelm\u0117s r. sav.","street":"\u017demait\u0117s g.","house":"1","apartment":"","zipcode":"86036","lat":"61.83958","long":"41.5499","name_for_sorting":"\u0160iauli\u0173","magento_region_id":"480","magento_region_code":"LT-SA","magento_region_name":"\u0160iauli\u0173 Apskritis"},{"id":"85019","code":"85019","label":"Ventos pa\u0161tas","address":"\u017demai\u010di\u0173 g. 39-16, Venta, 85019 Akmen\u0117s r. sav.","village":"Ventos","area":"\u0160iauli\u0173","district":"Akmen\u0117 r. sav.","street":"\u017demai\u010di\u0173 g.","house":"39","apartment":"16","zipcode":"85019","lat":"62.29325","long":"41.8331","name_for_sorting":"\u0160iauli\u0173","magento_region_id":"480","magento_region_code":"LT-SA","magento_region_name":"\u0160iauli\u0173 Apskritis"},{"id":"84019","code":"84019","label":"\u017dagar\u0117s pa\u0161tas","address":"Miesto a. 41, \u017dagar\u0117, 84019 Joni\u0161kio r. sav. ","village":"\u017dagar\u0117s","area":"\u0160iauli\u0173","district":"Joni\u0161kio r. sav.","street":"Miesto a.","house":"41","apartment":"","zipcode":"84019","lat":"62.47513","long":"45.4051","name_for_sorting":"\u0160iauli\u0173","magento_region_id":"480","magento_region_code":"LT-SA","magento_region_name":"\u0160iauli\u0173 Apskritis"},{"id":"76033","code":"76033","label":"\u0160iauli\u0173 Til\u017e\u0117s pa\u0161tas","address":"Til\u017e\u0117s g. 225, 76033 \u0160iauliai","village":"","area":"\u0160iauli\u0173","district":"\u0160iauli\u0173 m. sav.","street":"Til\u017e\u0117s g.","house":"225","apartment":"","zipcode":"76033","lat":"62.0105","long":"45.7992","name_for_sorting":"\u0160iauli\u0173","magento_region_id":"480","magento_region_code":"LT-SA","magento_region_name":"\u0160iauli\u0173 Apskritis"},{"id":"74001","code":"74001","label":"Jurbarko pa\u0161tas","address":"S. Dariaus ir S. Gir\u0117no g. 72, 74001 Jurbarkas","village":"Jurbarko miesto","area":"Taurag\u0117s","district":"Jurbarko r. sav.","street":"S. Dariaus ir S. Gir\u0117no g.","house":"72","apartment":"","zipcode":"74001","lat":"61.05356","long":"42.1465","name_for_sorting":"Taurag\u0117s","magento_region_id":"481","magento_region_code":"LT-TA","magento_region_name":"Taurag\u0117s Apskritis"},{"id":"99032","code":"99032","label":"Pag\u0117gi\u0173 pa\u0161tas","address":"Vilniaus g. 26, 99032 Pag\u0117giai","village":"Pag\u0117gi\u0173","area":"Taurag\u0117s","district":"Pag\u0117gi\u0173 sav.","street":"Vilniaus g.","house":"26","apartment":"","zipcode":"99032","lat":"61.12979","long":"36.6711","name_for_sorting":"Taurag\u0117s","magento_region_id":"481","magento_region_code":"LT-TA","magento_region_name":"Taurag\u0117s Apskritis"},{"id":"73028","code":"73028","label":"Skaudvil\u0117s pa\u0161tas","address":"Vilniaus g. 8, Skaudvil\u0117, 73028 Taurag\u0117s r. sav.","village":"Skaudvil\u0117s","area":"Taurag\u0117s","district":"Taurag\u0117s r. sav.","street":"Vilniaus g.","house":"8","apartment":"","zipcode":"73028","lat":"61.42147","long":"41.045","name_for_sorting":"Taurag\u0117s","magento_region_id":"481","magento_region_code":"LT-TA","magento_region_name":"Taurag\u0117s Apskritis"},{"id":"74009","code":"74009","label":"Smalinink\u0173 pa\u0161tas","address":"Nemuno g. 23, Smalininkai, 74009 Jurbarko r. sav.","village":"Smalinink\u0173","area":"Taurag\u0117s","district":"Jurbarko r. sav.","street":"Nemuno g.","house":"23","apartment":"","zipcode":"74009","lat":"61.05108","long":"40.961","name_for_sorting":"Taurag\u0117s","magento_region_id":"481","magento_region_code":"LT-TA","magento_region_name":"Taurag\u0117s Apskritis"},{"id":"75001","code":"75001","label":"\u0160ilal\u0117s pa\u0161tas","address":"J. Basanavi\u010diaus g. 21, 75001 \u0160ilal\u0117","village":"\u0160ilal\u0117s miesto","area":"Taurag\u0117s","district":"\u0160ilal\u0117s r. sav.","street":"J. Basanavi\u010diaus g.","house":"21","apartment":"","zipcode":"75001","lat":"61.52012","long":"38.5502","name_for_sorting":"Taurag\u0117s","magento_region_id":"481","magento_region_code":"LT-TA","magento_region_name":"Taurag\u0117s Apskritis"},{"id":"72001","code":"72001","label":"Taurag\u0117s centrinis pa\u0161tas","address":"S. Dariaus ir S. Gir\u0117no g. 16, 72001 Taurag\u0117 ","village":"Taurag\u0117s miesto","area":"Taurag\u0117s","district":"Taurag\u0117s r. sav.","street":"S. Dariaus ir S. Gir\u0117no g.","house":"16","apartment":"","zipcode":"72001","lat":"61.25399","long":"39.1003","name_for_sorting":"Taurag\u0117s","magento_region_id":"481","magento_region_code":"LT-TA","magento_region_name":"Taurag\u0117s Apskritis"},{"id":"90001","code":"90001","label":"Plung\u0117s pa\u0161tas","address":"S. Dariaus ir S. Gir\u0117no g. 2, 90001 Plung\u0117","village":"Plung\u0117s miesto","area":"Tel\u0161i\u0173","district":"Plung\u0117s r. sav.","street":"S. Dariaus ir S. Gir\u0117no g.","house":"2","apartment":"","zipcode":"90001","lat":"61.99786","long":"36.5459","name_for_sorting":"Tel\u0161i\u0173","magento_region_id":"482","magento_region_code":"LT-TE","magento_region_name":"Tel\u0161i\u0173 Apskritis"},{"id":"90018","code":"90018","label":"Rietavo pa\u0161tas","address":"Plung\u0117s g. 21, 90018 Rietavas","village":"Rietavo miesto","area":"Tel\u0161i\u0173","district":"Rietavo sav.","street":"Plung\u0117s g.","house":"21","apartment":"","zipcode":"90018","lat":"61.78604","long":"37.0007","name_for_sorting":"Tel\u0161i\u0173","magento_region_id":"482","magento_region_code":"LT-TE","magento_region_name":"Tel\u0161i\u0173 Apskritis"},{"id":"89051","code":"89051","label":"Sedos pa\u0161tas","address":"A. Baranausko a. 1, Seda, 89051 Ma\u017eeiki\u0173 r. sav.","village":"Sedos","area":"Tel\u0161i\u0173","district":"Ma\u017eeiki\u0173 r. sav.","street":"A. Baranausko a.","house":"1","apartment":"","zipcode":"89051","lat":"62.27612","long":"38.1411","name_for_sorting":"Tel\u0161i\u0173","magento_region_id":"482","magento_region_code":"LT-TE","magento_region_name":"Tel\u0161i\u0173 Apskritis"},{"id":"87001","code":"87001","label":"Tel\u0161i\u0173 pa\u0161tas","address":"Plung\u0117s g. 4, 87001 Tel\u0161iai","village":"Tel\u0161i\u0173 miesto","area":"Tel\u0161i\u0173","district":"Tel\u0161i\u0173 r. sav.","street":"Plung\u0117s g.","house":"4","apartment":"","zipcode":"87001","lat":"62.06566","long":"38.9894","name_for_sorting":"Tel\u0161i\u0173","magento_region_id":"482","magento_region_code":"LT-TE","magento_region_name":"Tel\u0161i\u0173 Apskritis"},{"id":"88050","code":"88050","label":"Varni\u0173 pa\u0161tas","address":"M. Valan\u010diaus g. 1, Varniai, 88050 Tel\u0161i\u0173 r. sav.","village":"Varni\u0173","area":"Tel\u0161i\u0173","district":"Tel\u0161i\u0173 r. sav.","street":"M. Valan\u010diaus g.","house":"1","apartment":"","zipcode":"88050","lat":"61.79985","long":"39.7731","name_for_sorting":"Tel\u0161i\u0173","magento_region_id":"482","magento_region_code":"LT-TE","magento_region_name":"Tel\u0161i\u0173 Apskritis"},{"id":"89094","code":"89094","label":"Viek\u0161ni\u0173 pa\u0161tas","address":"Dariaus ir Gir\u0117no g. 2, Viek\u0161niai, 89094 Ma\u017eeiki\u0173 r. sav.","village":"Viek\u0161ni\u0173","area":"Tel\u0161i\u0173","district":"Ma\u017eeiki\u0173 r. sav.","street":"Dariaus ir Gir\u0117no g.","house":"2","apartment":"","zipcode":"89094","lat":"62.34278","long":"40.8103","name_for_sorting":"Tel\u0161i\u0173","magento_region_id":"482","magento_region_code":"LT-TE","magento_region_name":"Tel\u0161i\u0173 Apskritis"},{"id":"89099","code":"89099","label":"Ma\u017eeiki\u0173 centro pa\u0161tas","address":"\u017demaitijos g. 38, 89099 Ma\u017eeikiai ","village":"Ma\u017eeiki\u0173","area":"Tel\u0161i\u0173","district":"Ma\u017eeiki\u0173 r. sav.","street":"\u017demaitijos g.","house":"38","apartment":"","zipcode":"89099","lat":"62.42267","long":"39.7281","name_for_sorting":"Tel\u0161i\u0173","magento_region_id":"482","magento_region_code":"LT-TE","magento_region_name":"Tel\u0161i\u0173 Apskritis"},{"id":"29001","code":"29001","label":"Anyk\u0161\u010di\u0173 pa\u0161tas","address":"J. Bili\u016bno g. 5, 29001 Anyk\u0161\u010diai","village":"Anyk\u0161\u010diai","area":"Utena","district":"Anyk\u0161\u010di\u0173 r. sav.","street":"J. Bili\u016bno g.","house":"5","apartment":"","zipcode":"29001","lat":"61.55123","long":"56.9867","name_for_sorting":"Utena","magento_region_id":"483","magento_region_code":"LT-UT","magento_region_name":"Utenos Apskritis"},{"id":"29021","code":"29021","label":"Kavarsko pa\u0161tas","address":"Respublikos a. 9, Kavarskas, 29021 Anyk\u0161\u010di\u0173 r. sav.","village":"Kavarskas","area":"Utena","district":"Anyk\u0161\u010di\u0173 r. sav.","street":"Respublikos a.","house":"9","apartment":"","zipcode":"29021","lat":"61.44699","long":"55.8597","name_for_sorting":"Utena","magento_region_id":"483","magento_region_code":"LT-UT","magento_region_name":"Utenos Apskritis"},{"id":"29033","code":"29033","label":"Tro\u0161k\u016bn\u0173 pa\u0161tas","address":"K. In\u010di\u016bros g. 1, Tro\u0161k\u016bnai, 29033 Anyk\u0161\u010di\u0173 r. sav.","village":"Tro\u0161k\u016bnai","area":"Utena","district":"Anyk\u0161\u010di\u0173 r. sav.","street":"K. In\u010di\u016bros g.","house":"1","apartment":"","zipcode":"29033","lat":"61.61758","long":"55.4815","name_for_sorting":"Utena","magento_region_id":"483","magento_region_code":"LT-UT","magento_region_name":"Utenos Apskritis"},{"id":"32029","code":"32029","label":"Duset\u0173 pa\u0161tas","address":"K. B\u016bgos g. 31A, Dusetos, 32029 Zaras\u0173 r. sav.","village":"Duset\u0173","area":"Utenos","district":"Zaras\u0173 r. sav.","street":"K. B\u016bgos g.","house":"31A","apartment":"","zipcode":"32029","lat":"61.80465","long":"61.5368","name_for_sorting":"Utenos","magento_region_id":"483","magento_region_code":"LT-UT","magento_region_name":"Utenos Apskritis"},{"id":"30001","code":"30001","label":"Ignalinos pa\u0161tas","address":"Laisv\u0117s g. 64, 30001 Ignalina","village":"Ignalinos miesto","area":"Utenos","district":"Ignalinos r. sav.","street":"Laisv\u0117s g.","house":"64","apartment":"","zipcode":"30001","lat":"61.36258","long":"63.7301","name_for_sorting":"Utenos","magento_region_id":"483","magento_region_code":"LT-UT","magento_region_name":"Utenos Apskritis"},{"id":"33001","code":"33001","label":"Mol\u0117t\u0173 pa\u0161tas","address":"Vilniaus g. 43-1, 33001 Mol\u0117tai","village":"","area":"Utenos","district":"Mol\u0117t\u0173 r. sav.","street":"Vilniaus g.","house":"43","apartment":"1","zipcode":"33001","lat":"61.22761","long":"59.0277","name_for_sorting":"Utenos","magento_region_id":"483","magento_region_code":"LT-UT","magento_region_name":"Utenos Apskritis"},{"id":"31001","code":"31001","label":"Visagino pa\u0161tas","address":"Veteran\u0173 g. 2, 31001 Visaginas","village":"","area":"Utenos","district":"Visagino sav.","street":"Veteran\u0173 g.","house":"2","apartment":"","zipcode":"31001","lat":"61.6517","long":"65.3447","name_for_sorting":"Utenos","magento_region_id":"483","magento_region_code":"LT-UT","magento_region_name":"Utenos Apskritis"},{"id":"32001","code":"32001","label":"Zaras\u0173 pa\u0161tas","address":"Pakaln\u0117s g. 2, 32001 Zarasai","village":"Zaras\u0173 miesto","area":"Utenos","district":"Zaras\u0173 r. sav.","street":"Pakaln\u0117s g.","house":"2","apartment":"","zipcode":"32001","lat":"61.79852","long":"64.0909","name_for_sorting":"Utenos","magento_region_id":"483","magento_region_code":"LT-UT","magento_region_name":"Utenos Apskritis"},{"id":"28051","code":"28051","label":"Utenos pa\u0161tas","address":"J. Barta\u0161iaus g. 1, 28051 Utena","village":"Utenos miesto","area":"Utenos","district":"Utenos r. sav.","street":"J. Barta\u0161iaus g.","house":"1","apartment":"","zipcode":"28051","lat":"61.5279","long":"60.139","name_for_sorting":"Utenos","magento_region_id":"483","magento_region_code":"LT-UT","magento_region_name":"Utenos Apskritis"},{"id":"14013","code":"14013","label":"Avi\u017eieni\u0173 pa\u0161tas","address":"Suderv\u0117s g. 9, Avi\u017eieniai, 14013 Vilniaus r. sav.","village":"Avi\u017eieni\u0173","area":"Vilniaus","district":"Vilniaus r. sav.","street":"Suderv\u0117s g.","house":"9","apartment":"","zipcode":"14013","lat":"60.70313","long":"57.6523","name_for_sorting":"Vilniaus","magento_region_id":"484","magento_region_code":"LT-VL","magento_region_name":"Vilniaus Apskritis"},{"id":"17035","code":"17035","label":"Baltosios Vok\u0117s pa\u0161tas","address":"Vilniaus g. 6, Baltoji Vok\u0117, 17035 \u0160al\u010dinink\u0173 r. sav.","village":"Baltosios Vok\u0117s","area":"Vilniaus","district":"\u0160al\u010dinink\u0173 r. sav.","street":"Vilniaus g.","house":"6","apartment":"","zipcode":"17035","lat":"60.35905","long":"57.2951","name_for_sorting":"Vilniaus","magento_region_id":"484","magento_region_code":"LT-VL","magento_region_name":"Vilniaus Apskritis"},{"id":"17017","code":"17017","label":"Ei\u0161i\u0161ki\u0173 pa\u0161tas","address":"Gegu\u017e\u0117s a. 18, Ei\u0161i\u0161k\u0117s, 17017 \u0160al\u010dinink\u0173 r. sav.","village":"Ei\u0161i\u0161ki\u0173","area":"Vilniaus","district":"\u0160al\u010dinink\u0173 r. sav.","street":"Gegu\u017e\u0117s a.","house":"18","apartment":"","zipcode":"17017","lat":"60.03915","long":"56.4939","name_for_sorting":"Vilniaus","magento_region_id":"484","magento_region_code":"LT-VL","magento_region_name":"Vilniaus Apskritis"},{"id":"26001","code":"26001","label":"Elektr\u0117n\u0173 pa\u0161tas","address":"Trak\u0173 g. 4A, 26001 Elektr\u0117nai ","village":"Elektr\u0117n\u0173","area":"Vilniaus","district":"Elektr\u0117n\u0173 sav.","street":"Trak\u0173 g.","house":"4A","apartment":"","zipcode":"26001","lat":"60.72436","long":"54.3194","name_for_sorting":"Vilniaus","magento_region_id":"484","magento_region_code":"LT-VL","magento_region_name":"Vilniaus Apskritis"},{"id":"13001","code":"13001","label":"Galgi\u0173 pa\u0161tas","address":"\u017dvaig\u017ediki\u0173 g. 2, 13001 Vilnius","village":"Antakalnio","area":"Vilniaus","district":"Vilniaus m. sav.","street":"\u017dvaig\u017ediki\u0173 g.","house":"2","apartment":"","zipcode":"13001","lat":"60.66393","long":"59.0943","name_for_sorting":"Vilniaus","magento_region_id":"484","magento_region_code":"LT-VL","magento_region_name":"Vilniaus Apskritis"},{"id":"27001","code":"27001","label":"Grigi\u0161ki\u0173 pa\u0161tas","address":"Vilniaus g. 6, Grigi\u0161k\u0117s, 27001 Vilnius","village":"Grigi\u0161ki\u0173","area":"Vilniaus","district":"Vilniaus m. sav.","street":"Vilniaus g.","house":"6","apartment":"","zipcode":"27001","lat":"60.60585","long":"56.9753","name_for_sorting":"Vilniaus","magento_region_id":"484","magento_region_code":"LT-VL","magento_region_name":"Vilniaus Apskritis"},{"id":"17038","code":"17038","label":"Ja\u0161i\u016bn\u0173 pa\u0161tas","address":"M. Balinskio g. 2, Ja\u0161i\u016bnai, 17038 \u0160al\u010dinink\u0173 r. sav.","village":"Ja\u0161i\u016bn\u0173","area":"Vilniaus","district":"\u0160al\u010dinink\u0173 r. sav.","street":"M. Balinskio g.","house":"2","apartment":"","zipcode":"17038","lat":"60.12246","long":"58.3042","name_for_sorting":"Vilniaus","magento_region_id":"484","magento_region_code":"LT-VL","magento_region_name":"Vilniaus Apskritis"},{"id":"14001","code":"14001","label":"Juod\u0161ili\u0173 pa\u0161tas","address":"Mokyklos g. 9, Juod\u0161iliai, 14001 Vilniaus r. sav.","village":"Juod\u0161ili\u0173","area":"Vilniaus","district":"Vilniaus r. sav.","street":"Mokyklos g.","house":"9","apartment":"","zipcode":"14001","lat":"60.49918","long":"58.1576","name_for_sorting":"Vilniaus","magento_region_id":"484","magento_region_code":"LT-VL","magento_region_name":"Vilniaus Apskritis"},{"id":"25001","code":"25001","label":"Lentvario pa\u0161tas","address":"Gele\u017einkelio g. 40, Lentvaris, 25001 Trak\u0173 r. sav.","village":"Lentvario","area":"Vilniaus","district":"Trak\u0173 r. sav.","street":"Gele\u017einkelio g.","house":"40","apartment":"","zipcode":"25001","lat":"60.56904","long":"56.7501","name_for_sorting":"Vilniaus","magento_region_id":"484","magento_region_code":"LT-VL","magento_region_name":"Vilniaus Apskritis"},{"id":"14025","code":"14025","label":"Mai\u0161iagalos pa\u0161tas","address":"Kiemeli\u0173 g. 11, Mai\u0161iagala, 14025 Vilniaus r. sav.","village":"Mai\u0161iagalos","area":"Vilniaus","district":"Vilniaus r. sav.","street":"Kiemeli\u0173 g.","house":"11","apartment":"","zipcode":"14025","lat":"60.82096","long":"56.801","name_for_sorting":"Vilniaus","magento_region_id":"484","magento_region_code":"LT-VL","magento_region_name":"Vilniaus Apskritis"},{"id":"15019","code":"15019","label":"Nemen\u010din\u0117s pa\u0161tas","address":"\u0160ven\u010dioni\u0173 g. 18, Nemen\u010din\u0117, 15019 Vilniaus r. sav.","village":"Nemen\u010din\u0117s miesto","area":"Vilniaus","district":"Vilniaus r. sav.","street":"\u0160ven\u010dioni\u0173 g.","house":"18","apartment":"","zipcode":"15019","lat":"60.7996","long":"59.4067","name_for_sorting":"Vilniaus","magento_region_id":"484","magento_region_code":"LT-VL","magento_region_name":"Vilniaus Apskritis"},{"id":"18017","code":"18017","label":"Pabrad\u0117s pa\u0161tas","address":"Pa\u0161to g. 13, Pabrad\u0117, 18017 \u0160ven\u010dioni\u0173 r. sav.","village":"Pabrad\u0117s miesto","area":"Vilniaus","district":"\u0160ven\u010dioni\u0173 r. sav.","street":"Pa\u0161to g.","house":"13","apartment":"","zipcode":"18017","lat":"60.95547","long":"61.3576","name_for_sorting":"Vilniaus","magento_region_id":"484","magento_region_code":"LT-VL","magento_region_name":"Vilniaus Apskritis"},{"id":"14004","code":"14004","label":"Pagiri\u0173 pa\u0161tas, Vilniaus r. sav.","address":"\u0160iltnami\u0173 g. 21, Pagiriai, 04130 Vilniaus r. sav.","village":"Pagiri\u0173","area":"Vilniaus","district":"Vilniaus r. sav.","street":"\u0160iltnami\u0173 g.","house":"21","apartment":"","zipcode":"14004","lat":"60.49879","long":"57.7415","name_for_sorting":"Vilniaus","magento_region_id":"484","magento_region_code":"LT-VL","magento_region_name":"Vilniaus Apskritis"},{"id":"14028","code":"14028","label":"Rie\u0161\u0117s pa\u0161tas","address":"Mol\u0117t\u0173 g. 13, Did\u017eioji Rie\u0161\u0117, 14028 Vilniaus r. sav.","village":"Rie\u0161\u0117s","area":"Vilniaus","district":"Vilniaus r. sav.","street":"Mol\u0117t\u0173 g.","house":"13","apartment":"","zipcode":"14028","lat":"60.72471","long":"58.1925","name_for_sorting":"Vilniaus","magento_region_id":"484","magento_region_code":"LT-VL","magento_region_name":"Vilniaus Apskritis"},{"id":"13031","code":"13031","label":"Rudaminos pa\u0161tas, Vilniaus r. sav.","address":"Gamyklos g. 28, Rudamina, 13031 Vilniaus r. sav.","village":"Rudaminos","area":"Vilniaus","district":"Vilniaus r. sav.","street":"Gamyklos g.","house":"28","apartment":"","zipcode":"13031","lat":"60.51537","long":"58.6675","name_for_sorting":"Vilniaus","magento_region_id":"484","magento_region_code":"LT-VL","magento_region_name":"Vilniaus Apskritis"},{"id":"21016","code":"21016","label":"R\u016bdi\u0161ki\u0173 pa\u0161tas, Trak\u0173 r. sav.","address":"Trak\u0173 g. 67, R\u016bdi\u0161k\u0117s, 21016 Trak\u0173 r. sav.","village":"R\u016bdi\u0161ki\u0173","area":"Vilniaus","district":"Trak\u0173 r. sav.","street":"Trak\u0173 g.","house":"67","apartment":"","zipcode":"21016","lat":"60.15048","long":"55.0095","name_for_sorting":"Vilniaus","magento_region_id":"484","magento_region_code":"LT-VL","magento_region_name":"Vilniaus Apskritis"},{"id":"13016","code":"13016","label":"Rukaini\u0173 pa\u0161tas","address":"Vilniaus g. 30, Rukainiai, 13016 Vilniaus r. sav.","village":"Rukaini\u0173","area":"Vilniaus","district":"Vilniaus r. sav.","street":"Vilniaus g.","house":"30","apartment":"","zipcode":"13016","lat":"60.25887","long":"59.2572","name_for_sorting":"Vilniaus","magento_region_id":"484","magento_region_code":"LT-VL","magento_region_name":"Vilniaus Apskritis"},{"id":"17001","code":"17001","label":"\u0160al\u010dinink\u0173 pa\u0161tas","address":"Vilniaus g. 61, 17001 \u0160al\u010dininkai","village":"\u0160al\u010dinink\u0173","area":"Vilniaus","district":"\u0160al\u010dinink\u0173 r. sav.","street":"Vilniaus g.","house":"61","apartment":"","zipcode":"17001","lat":"60.19813","long":"59.0084","name_for_sorting":"Vilniaus","magento_region_id":"484","magento_region_code":"LT-VL","magento_region_name":"Vilniaus Apskritis"},{"id":"19001","code":"19001","label":"\u0160irvint\u0173 pa\u0161tas","address":"I. \u0160einiaus g. 6, 19001 \u0160irvintos","village":"\u0160irvint\u0173","area":"Vilniaus","district":"\u0160irvint\u0173 r. sav.","street":"I. \u0160einiaus g.","house":"6","apartment":"","zipcode":"19001","lat":"61.00842","long":"56.1242","name_for_sorting":"Vilniaus","magento_region_id":"484","magento_region_code":"LT-VL","magento_region_name":"Vilniaus Apskritis"},{"id":"18022","code":"18022","label":"\u0160ven\u010dion\u0117li\u0173 pa\u0161tas","address":"\u0160ven\u010dioni\u0173 g. 2, \u0160ven\u010dion\u0117liai, 18022 \u0160ven\u010dioni\u0173 r. sav.","village":"\u0160ven\u010dion\u0117li\u0173","area":"Vilniaus","district":"\u0160ven\u010dioni\u0173 r. sav.","street":"\u0160ven\u010dioni\u0173 g.","house":"2","apartment":"","zipcode":"18022","lat":"61.1614","long":"62.731","name_for_sorting":"Vilniaus","magento_region_id":"484","magento_region_code":"LT-VL","magento_region_name":"Vilniaus Apskritis"},{"id":"18001","code":"18001","label":"\u0160ven\u010dioni\u0173 pa\u0161tas","address":"Vilniaus g. 18, 18001 \u0160ven\u010dionys","village":"\u0160ven\u010dioni\u0173","area":"Vilniaus","district":"\u0160ven\u010dioni\u0173 r. sav.","street":"Vilniaus g.","house":"18","apartment":"","zipcode":"18001","lat":"61.1278","long":"63.745","name_for_sorting":"Vilniaus","magento_region_id":"484","magento_region_code":"LT-VL","magento_region_name":"Vilniaus Apskritis"},{"id":"21001","code":"21001","label":"Trak\u0173 pa\u0161tas","address":"Vytauto g. 90, 21001 Trakai","village":"Trak\u0173","area":"Vilniaus","district":"Trak\u0173 r. sav.","street":"Vytauto g.","house":"90","apartment":"","zipcode":"21001","lat":"60.55599","long":"56.0352","name_for_sorting":"Vilniaus","magento_region_id":"484","magento_region_code":"LT-VL","magento_region_name":"Vilniaus Apskritis"},{"id":"20006","code":"20006","label":"Ukmerg\u0117s 2-asis pa\u0161tas","address":"Vilniaus g. 90A, 20006 Ukmerg\u0117","village":"Ukmerg\u0117s miesto","area":"Vilniaus","district":"Ukmerg\u0117s r. sav.","street":"Vilniaus g.","house":"90A","apartment":"","zipcode":"20006","lat":"61.23007","long":"54.9392","name_for_sorting":"Vilniaus","magento_region_id":"484","magento_region_code":"LT-VL","magento_region_name":"Vilniaus Apskritis"},{"id":"20001","code":"20001","label":"Ukmerg\u0117s pa\u0161tas","address":"Kauno g. 11, 20001 Ukmerg\u0117","village":"Ukmerg\u0117s miesto","area":"Vilniaus","district":"Ukmerg\u0117s r. sav.","street":"Kauno g.","house":"11","apartment":"","zipcode":"20001","lat":"61.23856","long":"54.8302","name_for_sorting":"Vilniaus","magento_region_id":"484","magento_region_code":"LT-VL","magento_region_name":"Vilniaus Apskritis"},{"id":"21058","code":"21058","label":"Vievio pa\u0161tas","address":"Vilniaus g. 55A, Vievis, 21058 Elektr\u0117nu sav. ","village":"Vievio","area":"Vilniaus","district":"Elektr\u0117n\u0173 sav.","street":"Vilniaus g.","house":"55A","apartment":"","zipcode":"21058","lat":"60.70824","long":"55.2702","name_for_sorting":"Vilniaus","magento_region_id":"484","magento_region_code":"LT-VL","magento_region_name":"Vilniaus Apskritis"},{"id":"10001","code":"10001","label":"Vilniaus 16-asis pa\u0161tas","address":"Nemen\u010din\u0117s pl. 2, 10001 Vilnius","village":"Antakalnio","area":"Vilniaus","district":"Vilniaus m. sav.","street":"Nemen\u010din\u0117s pl.","house":"2","apartment":"","zipcode":"10001","lat":"60.66106","long":"58.5043","name_for_sorting":"Vilniaus","magento_region_id":"484","magento_region_code":"LT-VL","magento_region_name":"Vilniaus Apskritis"},{"id":"12001","code":"12001","label":"Vilniaus 26-asis pa\u0161tas","address":"Ukmerg\u0117s g. 308, 12110 Vilnius","village":"Fabijoni\u0161ki\u0173","area":"Vilniaus","district":"Vilniaus m. sav.","street":"Ukmerg\u0117s g.","house":"308","apartment":"","zipcode":"12001","lat":"60.67779","long":"57.8899","name_for_sorting":"Vilniaus","magento_region_id":"484","magento_region_code":"LT-VL","magento_region_name":"Vilniaus Apskritis"},{"id":"02017","code":"02017","label":"Salinink\u0173 pa\u0161tas","address":"Pupin\u0117s g. 7, Salininkai, 02017 Vilnius","village":"Naujinink\u0173","area":"Vilniaus","district":"Vilniaus m. sav.","street":"Pupin\u0117s g.","house":"7","apartment":"","zipcode":"02017","lat":"60.53012","long":"58.1257","name_for_sorting":"Vilniaus","magento_region_id":"484","magento_region_code":"LT-VL","magento_region_name":"Vilniaus Apskritis"},{"id":"02021","code":"02021","label":"Trak\u0173 Vok\u0117s pa\u0161tas","address":"J. Ti\u0161kevi\u010diaus g. 1, Trak\u0173 Vok\u0117, 02021 Vilnius","village":"Paneri\u0173","area":"Vilniaus","district":"Vilniaus m. sav.","street":"J. Ti\u0161kevi\u010diaus g.","house":"1","apartment":"","zipcode":"02021","lat":"60.55225","long":"57.1587","name_for_sorting":"Vilniaus","magento_region_id":"484","magento_region_code":"LT-VL","magento_region_name":"Vilniaus Apskritis"},{"id":"07016","code":"07016","label":"Vilniaus 11-asis pa\u0161tas","address":"Ozo g. 25, 07016 Vilnius \u201eAkropolis\u201c","village":"\u0160e\u0161kin\u0117s","area":"Vilniaus","district":"Vilniaus m. sav.","street":"Ozo g.","house":"25","apartment":"","zipcode":"07016","lat":"60.00516","long":"58.0025","name_for_sorting":"Vilniaus","magento_region_id":"484","magento_region_code":"LT-VL","magento_region_name":"Vilniaus Apskritis"},{"id":"05009","code":"05009","label":"Vilniaus 17-asis pa\u0161tas","address":"Rygos g. 8, 05009 Vilnius","village":"Justini\u0161ki\u0173","area":"Vilniaus","district":"Vilniaus m. sav.","street":"Rygos g.","house":"8","apartment":"","zipcode":"05009","lat":"60.65099","long":"57.8952","name_for_sorting":"Vilniaus","magento_region_id":"484","magento_region_code":"LT-VL","magento_region_name":"Vilniaus Apskritis"},{"id":"01013","code":"01013","label":"Vilniaus 1-asis pa\u0161tas","address":"Vokie\u010di\u0173 g. 7-13, 01013 Vilnius","village":"Senamies\u010dio","area":"Vilniaus","district":"Vilniaus m. sav.","street":"Vokie\u010di\u0173 g.","house":"7","apartment":"13","zipcode":"01013","lat":"60.61054","long":"58.2853","name_for_sorting":"Vilniaus","magento_region_id":"484","magento_region_code":"LT-VL","magento_region_name":"Vilniaus Apskritis"},{"id":"08018","code":"08018","label":"Vilniaus 21-asis pa\u0161tas","address":"Jeruzal\u0117s g. 4, 08018 Vilnius","village":"Verki\u0173","area":"Vilniaus","district":"Vilniaus m. sav.","street":"Jeruzal\u0117s g.","house":"4","apartment":"","zipcode":"08018","lat":"60.67855","long":"58.2113","name_for_sorting":"Vilniaus","magento_region_id":"484","magento_region_code":"LT-VL","magento_region_name":"Vilniaus Apskritis"},{"id":"06001","code":"06001","label":"Vilniaus 22-asis pa\u0161tas","address":"Medeinos g. 8, 06001 Vilnius","village":"Pa\u0161ilai\u010di\u0173","area":"Vilniaus","district":"Vilniaus m. sav.","street":"Medeinos g.","house":"8","apartment":"","zipcode":"06001","lat":"60.66644","long":"57.9049","name_for_sorting":"Vilniaus","magento_region_id":"484","magento_region_code":"LT-VL","magento_region_name":"Vilniaus Apskritis"},{"id":"02011","code":"02011","label":"Vilniaus 38-asis pa\u0161tas","address":"S. Dariaus ir S. Gir\u0117no g. 8, 02011 Vilnius","village":"Naujinink\u0173","area":"Vilniaus","district":"Vilniaus m. sav.","street":"S. Dariaus ir S. Gir\u0117no g.","house":"8","apartment":"","zipcode":"02011","lat":"60.593","long":"58.2189","name_for_sorting":"Vilniaus","magento_region_id":"484","magento_region_code":"LT-VL","magento_region_name":"Vilniaus Apskritis"},{"id":"06005","code":"06005","label":"Vilniaus 3-asis pa\u0161tas","address":"Priegliaus g. 1, 06005 Vilnius","village":"Pilait\u0117s","area":"Vilniaus","district":"Vilniaus m. sav.","street":"Priegliaus g.","house":"1","apartment":"","zipcode":"06005","lat":"60.64341","long":"57.6503","name_for_sorting":"Vilniaus","magento_region_id":"484","magento_region_code":"LT-VL","magento_region_name":"Vilniaus Apskritis"},{"id":"10007","code":"10007","label":"Vilniaus 40-asis pa\u0161tas","address":"Antakalnio g. 75, 10007 Vilnius","village":"Antakalnio","area":"Vilniaus","district":"Vilniaus m. sav.","street":"Antakalnio g.","house":"75","apartment":"","zipcode":"10007","lat":"60.65055","long":"58.482","name_for_sorting":"Vilniaus","magento_region_id":"484","magento_region_code":"LT-VL","magento_region_name":"Vilniaus Apskritis"},{"id":"08009","code":"08009","label":"Vilniaus 42-asis pa\u0161tas","address":"Kalvarij\u0173 g. 121, 08009 Vilnius","village":"\u017dirm\u016bn\u0173","area":"Vilniaus","district":"Vilniaus m. sav.","street":"Kalvarij\u0173 g.","house":"121","apartment":"","zipcode":"08009","lat":"60.64403","long":"58.2892","name_for_sorting":"Vilniaus","magento_region_id":"484","magento_region_code":"LT-VL","magento_region_name":"Vilniaus Apskritis"},{"id":"04001","code":"04001","label":"Vilniaus 43-asis pa\u0161tas","address":"Architekt\u0173 g. 19, 04001 Vilnius","village":"Lazdyn\u0173","area":"Vilniaus","district":"Vilniaus m. sav.","street":"Architekt\u0173 g.","house":"19","apartment":"","zipcode":"04001","lat":"60.60377","long":"57.8249","name_for_sorting":"Vilniaus","magento_region_id":"484","magento_region_code":"LT-VL","magento_region_name":"Vilniaus Apskritis"},{"id":"08001","code":"08001","label":"Vilniaus 4-asis pa\u0161tas","address":"Saltoni\u0161ki\u0173 g. 9, 08001 Vilnius","village":"\u017dv\u0117ryno","area":"Vilniaus","district":"Vilniaus m. sav.","street":"Saltoni\u0161ki\u0173 g.","house":"9","apartment":"","zipcode":"08001","lat":"60.63295","long":"58.1143","name_for_sorting":"Vilniaus","magento_region_id":"484","magento_region_code":"LT-VL","magento_region_name":"Vilniaus Apskritis"},{"id":"04013","code":"04013","label":"Vilniaus 50-asis pa\u0161tas","address":"L. Asanavi\u010di\u016bt\u0117s g. 17, 04013 Vilnius","village":"Karolini\u0161ki\u0173","area":"Vilniaus","district":"Vilniaus m. sav.","street":"L. Asanavi\u010di\u016bt\u0117s g.","house":"17","apartment":"","zipcode":"04013","lat":"60.62137","long":"57.8051","name_for_sorting":"Vilniaus","magento_region_id":"484","magento_region_code":"LT-VL","magento_region_name":"Vilniaus Apskritis"},{"id":"02029","code":"02029","label":"Vilniaus 53-iasis pa\u0161tas","address":"Vaduvos g. 5, 02029 Vilnius","village":"Vilkp\u0117d\u0117s","area":"Vilniaus","district":"Vilniaus m. sav.","street":"Vaduvos g.","house":"5","apartment":"","zipcode":"02029","lat":"60.56891","long":"57.7763","name_for_sorting":"Vilniaus","magento_region_id":"484","magento_region_code":"LT-VL","magento_region_name":"Vilniaus Apskritis"},{"id":"08013","code":"08013","label":"Vilniaus 57-asis pa\u0161tas","address":"Ozo g. 18, 08013 Vilnius \u201eOZAS\u201c","village":"Fabijoni\u0161ki\u0173","area":"Vilniaus","district":"Vilniaus m. sav.","street":"Ozo g.","house":"18","apartment":"","zipcode":"08013","lat":"60.64887","long":"58.2045","name_for_sorting":"Vilniaus","magento_region_id":"484","magento_region_code":"LT-VL","magento_region_name":"Vilniaus Apskritis"},{"id":"12011","code":"12011","label":"Vilniaus 58-asis pa\u0161tas","address":"Visalaukio g. 1, 12011, Vilnius ","village":"Verki\u0173","area":"Vilniaus","district":"Vilniaus m. sav.","street":"Visalaukio g.","house":"1","apartment":"","zipcode":"12011","lat":"60.72204","long":"58.6322","name_for_sorting":"Vilniaus","magento_region_id":"484","magento_region_code":"LT-VL","magento_region_name":"Vilniaus Apskritis"},{"id":"03023","code":"03023","label":"Vilniaus 59-asis pa\u0161tas","address":"Kedr\u0173 g. 4, 03023 Vilnius","village":"Naujamies\u010dio","area":"Vilniaus","district":"Vilniaus m. sav.","street":"Kedr\u0173 g.","house":"4","apartment":"","zipcode":"03023","lat":"60.60624","long":"58.1039","name_for_sorting":"Vilniaus","magento_region_id":"484","magento_region_code":"LT-VL","magento_region_name":"Vilniaus Apskritis"},{"id":"07018","code":"07018","label":"Vilniaus 60-asis pa\u0161tas","address":"Ukmerg\u0117s g. 233, 07018 Vilnius","village":"Fabijoni\u0161ki\u0173","area":"Vilniaus","district":"Vilniaus m. sav.","street":"Ukmerg\u0117s g.","house":"233","apartment":"","zipcode":"07018","lat":"60.65635","long":"58.0224","name_for_sorting":"Vilniaus","magento_region_id":"484","magento_region_code":"LT-VL","magento_region_name":"Vilniaus Apskritis"},{"id":"01068","code":"01068","label":"Vilniaus 61-asis pa\u0161tas","address":"Totori\u0173 g. 8, 01068 Vilnius","village":"Senamies\u010dio","area":"Vilniaus","district":"Vilniaus m. sav.","street":"Totori\u0173 g.","house":"8","apartment":"","zipcode":"01068","lat":"60.61768","long":"58.2693","name_for_sorting":"Vilniaus","magento_region_id":"484","magento_region_code":"LT-VL","magento_region_name":"Vilniaus Apskritis"},{"id":"03011","code":"03011","label":"Vilniaus 6-asis pa\u0161tas","address":"Mindaugo g. 25, 03011 Vilnius","village":"Naujamies\u010dio","area":"Vilniaus","district":"Vilniaus m. sav.","street":"Mindaugo g.","house":"25","apartment":"","zipcode":"03011","lat":"60.60396","long":"58.2217","name_for_sorting":"Vilniaus","magento_region_id":"484","magento_region_code":"LT-VL","magento_region_name":"Vilniaus Apskritis"},{"id":"09023","code":"09023","label":"Vilniaus 8-asis pa\u0161tas","address":"\u017dirm\u016bn\u0173 g. 64, 09023 Vilnius","village":"\u017dirm\u016bn\u0173","area":"Vilniaus","district":"Vilniaus m. sav.","street":"\u017dirm\u016bn\u0173 g.","house":"64","apartment":"","zipcode":"09023","lat":"60.6478","long":"58.3898","name_for_sorting":"Vilniaus","magento_region_id":"484","magento_region_code":"LT-VL","magento_region_name":"Vilniaus Apskritis"},{"id":"09026","code":"09026","label":"Vilniaus 8-ojo pa\u0161to pirmasis poskyris","address":"Kareivi\u0173 g. 11 A, 09026 Vilnius","village":"\u017dirm\u016bn\u0173","area":"Vilniaus","district":"Vilniaus m. sav.","street":"Kareivi\u0173 g.","house":"11A","apartment":"","zipcode":"09026","lat":"60.65383","long":"58.3741","name_for_sorting":"Vilniaus","magento_region_id":"484","magento_region_code":"LT-VL","magento_region_name":"Vilniaus Apskritis"},{"id":"02045","code":"02045","label":"Vilniaus Kaln\u0117n\u0173 pa\u0161tas","address":"Morav\u0173 g. 7, 02045 Vilnius","village":"Naujosios Vilnios","area":"Vilniaus","district":"Vilniaus m. sav.","street":"Morav\u0173 g.","house":"7","apartment":"","zipcode":"02045","lat":"60.57925","long":"58.5489","name_for_sorting":"Vilniaus","magento_region_id":"484","magento_region_code":"LT-VL","magento_region_name":"Vilniaus Apskritis"},{"id":"11016","code":"11016","label":"Vilniaus Naujosios Vilnios pa\u0161tas","address":"Pergal\u0117s g. 40, 11016 Vilnius","village":"Naujosios Vilnios","area":"Vilniaus","district":"Vilniaus m. sav.","street":"Pergal\u0117s g.","house":"40","apartment":"","zipcode":"11016","lat":"60.61508","long":"59.1193","name_for_sorting":"Vilniaus","magento_region_id":"484","magento_region_code":"LT-VL","magento_region_name":"Vilniaus Apskritis"}]