[{"id":"585","postcode":"2164","label":"\u0100da\u017eu pasta noda\u013ca","working_monday":"8:00-18:00","working_tuesday":"8:00-18:00","working_wednesday":"8:00-19:00","working_thursday":"8:00-18:00","working_friday":"8:00-18:00","working_saturday":"-","working_sunday":"-","phone":"67008001","inout":"1","region":"R\u012bgas raj.","city":"\u0100da\u017ei","area":"\u0100da\u017eu nov.","district":null,"village":null,"street":"Gaujas iela","house":"11","zipcode":"2164","address":"Gaujas iela 11, \u0100da\u017ei, \u0100da\u017eu nov., LV-2164","lat":"57.0774369962","long":"24.3238593662","magento_region_id":"471","magento_region_code":"\u0100da\u017eu novads","magento_region_name":"\u0100da\u017eu novads","name_for_sorting":"\u0100da\u017ei"},{"id":"560","postcode":"4035","label":"Aina\u017eu pasta noda\u013ca","working_monday":"7:30 -11:30; 12:30 -16:00","working_tuesday":"7:30 -11:30; 12:30 -16:00","working_wednesday":"7:30 -11:30; 12:30 -16:00","working_thursday":"7:30 -11:30; 12:30 -16:00","working_friday":"7:30 -11:30; 12:30 -16:00","working_saturday":"-","working_sunday":"-","phone":"67008001; 27008001","inout":"0","region":"Limba\u017eu raj.","city":"Aina\u017ei","area":"Limba\u017eu nov.","district":null,"village":null,"street":"Valdem\u0101ra iela","house":"42","zipcode":"4035","address":"Valdem\u0101ra iela 42, Aina\u017ei, Limba\u017eu nov., LV-4035","lat":"57.8632883716","long":"24.3581408986","magento_region_id":"414","magento_region_code":"LV-LM","magento_region_name":"Limba\u017eu novads","name_for_sorting":"Aina\u017ei"},{"id":"595","postcode":"5101","label":"Pasta centrs Aizkraukle","working_monday":"8:00-18:00","working_tuesday":"8:00-18:00","working_wednesday":"8:00-18:00","working_thursday":"8:00-18:00","working_friday":"8:00-18:00","working_saturday":"-","working_sunday":"-","phone":"67008001","inout":"1","region":"Aizkraukles raj.","city":"Aizkraukle","area":"Aizkraukles nov.","district":null,"village":null,"street":"B\u0113rzu iela","house":"1","zipcode":"5101","address":"B\u0113rzu iela 1, Aizkraukle, Aizkraukles nov., LV-5101","lat":"56.601783961","long":"25.2543748629","magento_region_id":"367","magento_region_code":"LV-AI","magento_region_name":"Aizkraukles novads","name_for_sorting":"Aizkraukle"},{"id":"259","postcode":"3456","label":"Aizputes pasta noda\u013ca","working_monday":"7:00-14:00","working_tuesday":"7:00-14:00","working_wednesday":"7:00-14:00","working_thursday":"7:00-14:00","working_friday":"7:00-14:00","working_saturday":"-","working_sunday":"-","phone":"67008001;27008001","inout":"0","region":"Liep\u0101jas raj.","city":"Aizpute","area":"Dienvidkurzemes nov.","district":null,"village":null,"street":"Zvaig\u017e\u0146u iela","house":"2","zipcode":"3456","address":"Zvaig\u017e\u0146u iela 2, Aizpute, Dienvidkurzemes nov., LV-3456","lat":"56.7189477048","long":"21.6072798994","magento_region_id":"438","magento_region_code":"Ropa\u017eu novads","magento_region_name":"Ropa\u017eu novads","name_for_sorting":"Aizpute"},{"id":"432","postcode":"5208","label":"Akn\u012bstes pasta noda\u013ca","working_monday":"08:00 - 16:00","working_tuesday":"08:00 - 16:00","working_wednesday":"08:00 - 16:00","working_thursday":"08:00-15:00","working_friday":"08:00-15:00","working_saturday":"-","working_sunday":"-","phone":"67008001","inout":"0","region":"J\u0113kabpils raj.","city":"Akn\u012bste","area":"J\u0113kabpils nov.","district":null,"village":null,"street":"Skolas iela","house":"7","zipcode":"5208","address":"Skolas iela 7, Akn\u012bste, J\u0113kabpils nov., LV-5208","lat":"56.1619822673","long":"25.7407056429","magento_region_id":"405","magento_region_code":"LV-JK","magento_region_name":"J\u0113kabpils novads","name_for_sorting":"Akn\u012bste"},{"id":"242","postcode":"4064","label":"Alojas pasta noda\u013ca","working_monday":"7:30 -9:00; 10:30-15:30                                            ","working_tuesday":"7:30 -9:00; 10:30-15:30                                            ","working_wednesday":"7:30 -9:00; 10:30-15:30","working_thursday":"7:30 -9:00; 10:30-15:30","working_friday":"7:30 -9:00; 10:30-15:30","working_saturday":"-","working_sunday":"-","phone":"67008001; 27008001","inout":"0","region":"Limba\u017eu raj.","city":"Aloja","area":"Limba\u017eu nov.","district":null,"village":null,"street":"Kal\u0113ju iela","house":"3A","zipcode":"4064","address":"Kal\u0113ju iela 3A, Aloja, Limba\u017eu nov., LV-4064","lat":"57.7656981188","long":"24.8800213665","magento_region_id":"414","magento_region_code":"LV-LM","magento_region_name":"Limba\u017eu novads","name_for_sorting":"Aloja"},{"id":"591","postcode":"3306","label":"Alsungas pasta noda\u013ca","working_monday":"7:00 - 14:00","working_tuesday":"7:00 - 14:00","working_wednesday":"7:00 - 14:00","working_thursday":"7:00 - 14:00","working_friday":"7:00 - 14:00","working_saturday":"-","working_sunday":"-","phone":"67008001;27008001","inout":"0","region":"Kuld\u012bgas raj.","city":null,"area":"Kuld\u012bgas nov.","district":"Alsungas pag.","village":"Alsunga","street":"Rai\u0146a iela","house":"2","zipcode":"3306","address":"Rai\u0146a iela 2, Alsunga, Alsungas pag., Kuld\u012bgas nov., LV-3306","lat":"56.9819460462","long":"21.5652586687","magento_region_id":"411","magento_region_code":"LV-KU","magento_region_name":"Kuld\u012bgas novads","name_for_sorting":"Alsunga"},{"id":"298","postcode":"4301","label":"Al\u016bksnes 1.pasta noda\u013ca","working_monday":"8:00 - 18:00","working_tuesday":"8:00 - 18:00","working_wednesday":"8:00 - 18:00","working_thursday":"8:00 - 18:00","working_friday":"8:00 - 18:00","working_saturday":"9:00-13:00","working_sunday":"-","phone":"67008001; 27008001","inout":"1","region":"Al\u016bksnes raj.","city":"Al\u016bksne","area":"Al\u016bksnes nov.","district":null,"village":null,"street":"Pils iela","house":"21, pasta noda\u013ca","zipcode":"4301","address":"Pils iela 21, pasta noda\u013ca, Al\u016bksne, Al\u016bksnes nov., LV-4301","lat":"57.4250581901","long":"27.0457766895","magento_region_id":"372","magento_region_code":"LV-AL","magento_region_name":"Al\u016bksnes novads","name_for_sorting":"Al\u016bksne"},{"id":"564","postcode":"4337","label":"Apes pasta noda\u013ca","working_monday":"8:00 - 11:30","working_tuesday":"8:00 - 11:30","working_wednesday":"8:00 - 12:00  12:30-16:00","working_thursday":"8:00 - 11:30","working_friday":"8:00 - 11:30","working_saturday":"-","working_sunday":"-","phone":"67008001; 27008001","inout":"0","region":"Valkas raj.","city":"Ape","area":"Smiltenes nov.","district":null,"village":null,"street":"Stacijas iela","house":"7","zipcode":"4337","address":"Stacijas iela 7, Ape, Smiltenes nov., LV-4337","lat":"57.5389933535","long":"26.6949501437","magento_region_id":"452","magento_region_code":"Smiltenes novads","magento_region_name":"Smiltenes novads","name_for_sorting":"Ape"},{"id":"27","postcode":"3708","label":"Auces pasta noda\u013ca","working_monday":"7:00-15:00","working_tuesday":"7:00-15:00","working_wednesday":"7:00-15:00","working_thursday":"7:00-15:00","working_friday":"7:00-15:00","working_saturday":"-","working_sunday":"-","phone":"67008001","inout":"0","region":"Dobeles raj.","city":"Auce","area":"Dobeles nov.","district":null,"village":null,"street":"Rai\u0146a iela","house":"12","zipcode":"3708","address":"Rai\u0146a iela 12, Auce, Dobeles nov., LV-3708","lat":"56.4633008947","long":"22.8943530276","magento_region_id":"390","magento_region_code":"LV-DO","magento_region_name":"Dobeles novads","name_for_sorting":"Auce"},{"id":"403","postcode":"4108","label":"L\u012bgatnes 1.pasta noda\u013ca","working_monday":"7:30-13:00; 13:30-15:00","working_tuesday":"7:30-13:00; 13:30-15:00","working_wednesday":"7:30-13:00; 13:30-15:00","working_thursday":"7:30-13:00; 13:30-15:00","working_friday":"7:30-13:00; 13:30-15:00","working_saturday":"-","working_sunday":"-","phone":"67008001; 27008001","inout":"0","region":"C\u0113su raj.","city":null,"area":"C\u0113su nov.","district":"L\u012bgatnes pag.","village":"Aug\u0161l\u012bgatne","street":null,"house":"Pasts","zipcode":"4108","address":"\"Pasts\", Aug\u0161l\u012bgatne, L\u012bgatnes pag., C\u0113su nov., LV-4108","lat":"57.1826914421","long":"25.0330201318","magento_region_id":"387","magento_region_code":"LV-CE","magento_region_name":"C\u0113su novads","name_for_sorting":"Aug\u0161l\u012bgatne"},{"id":"22","postcode":"2125","label":"Baldones pasta noda\u013ca","working_monday":"8:00-15:00","working_tuesday":"8:00-15:00","working_wednesday":"8:00-18:00","working_thursday":"8:00-15:00","working_friday":"8:00-15:00","working_saturday":"-","working_sunday":"-","phone":" 67008001","inout":"1","region":"R\u012bgas raj.","city":"Baldone","area":"\u0136ekavas nov.","district":null,"village":null,"street":"R\u012bgas iela","house":"87","zipcode":"2125","address":"R\u012bgas iela 87, Baldone, \u0136ekavas nov., LV-2125","lat":"56.7429389723","long":"24.4003831253","magento_region_id":"474","magento_region_code":"\u0136ekavas novads","magento_region_name":"\u0136ekavas novads","name_for_sorting":"Baldone"},{"id":"105","postcode":"2128","label":"Titurgas pasta noda\u013ca","working_monday":"08:30-19:00","working_tuesday":"08:30-15:00","working_wednesday":"08:30-15:00","working_thursday":"08:30-19:00","working_friday":"07:30-15:00","working_saturday":"-","working_sunday":"-","phone":"67008001","inout":"1","region":"R\u012bgas raj.","city":"Balo\u017ei","area":"\u0136ekavas nov.","district":null,"village":null,"street":"Za\u013c\u0101 iela","house":"5","zipcode":"2128","address":"Za\u013c\u0101 iela 5, Balo\u017ei, \u0136ekavas nov., LV-2128","lat":"56.879586204","long":"24.1499330706","magento_region_id":"474","magento_region_code":"\u0136ekavas novads","magento_region_name":"\u0136ekavas novads","name_for_sorting":"Balo\u017ei"},{"id":"327","postcode":"4501","label":"Balvu 1.pasta noda\u013ca","working_monday":"8:00-17:00","working_tuesday":"8:00-17:00","working_wednesday":"8:00-17:00","working_thursday":"8:00-17:00","working_friday":"8:00-17:00","working_saturday":"-","working_sunday":"-","phone":"67008001; 27008001","inout":"1","region":"Balvu raj.","city":"Balvi","area":"Balvu nov.","district":null,"village":null,"street":"B\u0113rzpils iela","house":"12","zipcode":"4501","address":"B\u0113rzpils iela 12 - 2, Balvi, Balvu nov., LV-4501","lat":"57.1298102094","long":"27.2665420955","magento_region_id":"379","magento_region_code":"LV-BL","magento_region_name":"Balvu novads","name_for_sorting":"Balvi"},{"id":"559","postcode":"3901","label":"Pasta centrs Bauska","working_monday":"7:00-18:00","working_tuesday":"7:00-18:00","working_wednesday":"7:00-18:00","working_thursday":"7:00-18:00","working_friday":"7:00-18:00","working_saturday":"-","working_sunday":"-","phone":"67008001","inout":"1","region":"Bauskas raj.","city":"Bauska","area":"Bauskas nov.","district":null,"village":null,"street":"Slimn\u012bcas iela","house":"9A","zipcode":"3901","address":"Slimn\u012bcas iela 9A, Bauska, Bauskas nov., LV-3901","lat":"56.4077141253","long":"24.196935391","magento_region_id":"380","magento_region_code":"LV-BU","magento_region_name":"Bauskas novads","name_for_sorting":"Bauska"},{"id":"592","postcode":"3851","label":"Broc\u0113nu pasta noda\u013ca","working_monday":"7:00-14:00","working_tuesday":"7:00-14:00","working_wednesday":"7:00-14:00","working_thursday":"7:00-14:00","working_friday":"7:00-14:00","working_saturday":"-","working_sunday":"-","phone":"67008001;27008001","inout":"0","region":"Saldus raj.","city":"Broc\u0113ni","area":"Saldus nov.","district":null,"village":null,"street":"Lielcieceres iela","house":"6B","zipcode":"3851","address":"Lielcieceres iela 6B, Broc\u0113ni, Saldus nov., LV-3851","lat":"56.6808614963","long":"22.5665100636","magento_region_id":"447","magento_region_code":"LV-SA","magento_region_name":"Saldus novads","name_for_sorting":"Broc\u0113ni"},{"id":"111","postcode":"2163","label":"Carnikavas pasta noda\u013ca","working_monday":"8:00-16:00","working_tuesday":"9:00-16:00","working_wednesday":"8:00-19:00","working_thursday":"9:00-16:00","working_friday":"9:00-16:00","working_saturday":"-","working_sunday":"-","phone":"67008001","inout":"0","region":"R\u012bgas raj.","city":null,"area":"\u0100da\u017eu nov.","district":"Carnikavas pag.","village":"Carnikava","street":"Stacijas iela","house":"7","zipcode":"2163","address":"Stacijas iela 7, Carnikava, Carnikavas pag., \u0100da\u017eu nov., LV-2163","lat":"57.1285640045","long":"24.2782389898","magento_region_id":"471","magento_region_code":"\u0100da\u017eu novads","magento_region_name":"\u0100da\u017eu novads","name_for_sorting":"Carnikava"},{"id":"263","postcode":"4103","label":"C\u0113su 3.pasta noda\u013ca","working_monday":"8:00-18:00","working_tuesday":"8:00-18:00","working_wednesday":"8:00-18:00","working_thursday":"8:00-18:00","working_friday":"8:00-18:00","working_saturday":"-","working_sunday":"-","phone":"67008001; 27008001","inout":"0","region":"C\u0113su raj.","city":"C\u0113sis","area":"C\u0113su nov.","district":null,"village":null,"street":"J\u0101\u0146a Poruka iela","house":"19, pasta noda\u013ca","zipcode":"4103","address":"J\u0101\u0146a Poruka iela 19, pasta noda\u013ca, C\u0113sis, C\u0113su nov., LV-4103","lat":"57.3144204151","long":"25.2939540632","magento_region_id":"387","magento_region_code":"LV-CE","magento_region_name":"C\u0113su novads","name_for_sorting":"C\u0113sis"},{"id":"616","postcode":"4102","label":"C\u0113su 2.pasta noda\u013ca","working_monday":"7:00-18:00","working_tuesday":"7:00-18:00","working_wednesday":"7:00-18:00","working_thursday":"7:00-18:00","working_friday":"7:00-18:00","working_saturday":"9:00-13:00","working_sunday":"-","phone":"67008001; 27008001","inout":"1","region":"C\u0113su raj.","city":"C\u0113sis","area":"C\u0113su nov.","district":null,"village":null,"street":"Stacijas laukums","house":"5, pasta noda\u013ca","zipcode":"4102","address":"Stacijas laukums 5, pasta noda\u013ca, C\u0113sis, C\u0113su nov., LV-4102","lat":"57.3130248451","long":"25.2816764298","magento_region_id":"387","magento_region_code":"LV-CE","magento_region_name":"C\u0113su novads","name_for_sorting":"C\u0113sis"},{"id":"396","postcode":"4871","label":"Cesvaines pasta noda\u013ca","working_monday":"7:30-8:00; 8:30-12:00; 13:00-16:00","working_tuesday":"7:30-8:00; 8:30-12:00; 13:00-16:00","working_wednesday":"7:30-8:00; 8:30-12:00; 13:00-16:00","working_thursday":"7:30-8:00; 8:30-12:00; 13:00-16:00","working_friday":"7:30-8:00; 8:30-12:00; 13:00-16:00","working_saturday":"-","working_sunday":"-","phone":"67008001; 27008001","inout":"0","region":"Madonas raj.","city":"Cesvaine","area":"Madonas nov.","district":null,"village":null,"street":"Pils iela","house":"1A","zipcode":"4871","address":"Pils iela 1A, Cesvaine, Madonas nov., LV-4871","lat":"56.9683933358","long":"26.3093607698","magento_region_id":"419","magento_region_code":"LV-MA","magento_region_name":"Madonas novads","name_for_sorting":"Cesvaine"},{"id":"514","postcode":"5674","label":"Dagdas pasta noda\u013ca","working_monday":"7:30-15:30","working_tuesday":"7:30-15:30","working_wednesday":"7:30-15:30","working_thursday":"7:30-15:30","working_friday":"7:30-15:30","working_saturday":"-","working_sunday":"-","phone":"67008001; 27008001","inout":"0","region":"Kr\u0101slavas raj.","city":"Dagda","area":"Kr\u0101slavas nov.","district":null,"village":null,"street":"Alejas iela","house":"16B","zipcode":"5674","address":"Alejas iela 16B, Dagda, Kr\u0101slavas nov., LV-5674","lat":"56.0960533672","long":"27.5341514919","magento_region_id":"410","magento_region_code":"LV-KR","magento_region_name":"Kr\u0101slavas novads","name_for_sorting":"Dagda"},{"id":"466","postcode":"5417","label":"Daugavpils 17.pasta noda\u013ca","working_monday":"8:00-18:00 ","working_tuesday":"8:00-18:00 ","working_wednesday":"8:00-18:00 ","working_thursday":"8:00-18:00 ","working_friday":"8:00-18:00 ","working_saturday":"-","working_sunday":"-","phone":"67008001; 27008001","inout":"1","region":null,"city":"Daugavpils","area":null,"district":null,"village":null,"street":"Str\u0101dnieku iela","house":"84","zipcode":"5417","address":"Str\u0101dnieku iela 84, Daugavpils, LV-5417","lat":"55.8803245259","long":"26.5591439574","magento_region_id":"355","magento_region_code":"LV-DGV","magento_region_name":"Daugavpils","name_for_sorting":"Daugavpils"},{"id":"488","postcode":"5410","label":"Daugavpils 10.pasta noda\u013ca","working_monday":"8:30-17:30","working_tuesday":"8:30-17:30","working_wednesday":"8:30-17:30","working_thursday":"8:30-17:30","working_friday":"8:30-17:30","working_saturday":"-","working_sunday":"-","phone":"67008001; 27008001","inout":"0","region":null,"city":"Daugavpils","area":null,"district":null,"village":null,"street":"J\u0101tnieku iela","house":"78B","zipcode":"5410","address":"J\u0101tnieku iela 78B, Daugavpils, LV-5410","lat":"55.8921718796","long":"26.5575947165","magento_region_id":"355","magento_region_code":"LV-DGV","magento_region_name":"Daugavpils","name_for_sorting":"Daugavpils"},{"id":"626","postcode":"5422","label":"Daugavpils 22.pasta noda\u013ca","working_monday":"08:30-17:00","working_tuesday":"08:30-17:00","working_wednesday":"08:30-17:00","working_thursday":"08:30-17:00","working_friday":"08:30-17:00","working_saturday":"-","working_sunday":"-","phone":"67008001; 27008001","inout":"0","region":null,"city":"Daugavpils","area":null,"district":null,"village":null,"street":"Ave\u0146u iela","house":"26","zipcode":"5422","address":"Ave\u0146u iela 26, Daugavpils, LV-5422","lat":"55.90121346","long":"26.527424485","magento_region_id":"355","magento_region_code":"LV-DGV","magento_region_name":"Daugavpils","name_for_sorting":"Daugavpils"},{"id":"77","postcode":"3701","label":"Dobeles 1.pasta noda\u013ca","working_monday":"7:00-18:00","working_tuesday":"7:00-18:00","working_wednesday":"7:00-18:00","working_thursday":"7:00-18:00","working_friday":"7:00-18:00","working_saturday":"-","working_sunday":"-","phone":"+37167008001","inout":"1","region":"Dobeles raj.","city":"Dobele","area":"Dobeles nov.","district":null,"village":null,"street":"Tirgus laukums","house":"4, pasta noda\u013ca","zipcode":"3701","address":"Tirgus laukums 4, pasta noda\u013ca, Dobele, Dobeles nov., LV-3701","lat":"56.6227950567","long":"23.2806221222","magento_region_id":"390","magento_region_code":"LV-DO","magento_region_name":"Dobeles novads","name_for_sorting":"Dobele"},{"id":"167","postcode":"3270","label":"Dundagas pasta noda\u013ca","working_monday":"8:00 - 13:00","working_tuesday":"8:00 - 13:00","working_wednesday":"8:00 - 13:00","working_thursday":"8:00 - 13:00","working_friday":"8:00 - 13:00","working_saturday":"-","working_sunday":"-","phone":"67008001;27008001","inout":"0","region":"Talsu raj.","city":null,"area":"Talsu nov.","district":"Dundagas pag.","village":"Dundaga","street":"Pils iela","house":"1","zipcode":"3270","address":"Pils iela 1, Dundaga, Dundagas pag., Talsu nov., LV-3270","lat":"57.5096402652","long":"22.3515955083","magento_region_id":"456","magento_region_code":"LV-TA","magento_region_name":"Talsu novads","name_for_sorting":"Dundaga"},{"id":"133","postcode":"3023","label":"Elejas pasta noda\u013ca","working_monday":"08:00-14:00","working_tuesday":"08:00-14:00","working_wednesday":"08:00-14:00","working_thursday":"08:00-14:00","working_friday":"08:00-14:00","working_saturday":"-","working_sunday":"-","phone":"67008001","inout":"0","region":"Jelgavas raj.","city":null,"area":"Jelgavas nov.","district":"Elejas pag.","village":"Eleja","street":"Stacijas iela","house":"1","zipcode":"3023","address":"Stacijas iela 1, Eleja, Elejas pag., Jelgavas nov., LV-3023","lat":"56.4080265667","long":"23.6813625608","magento_region_id":"404","magento_region_code":"LV-JL","magento_region_name":"Jelgavas novads","name_for_sorting":"Eleja"},{"id":"589","postcode":"3113","label":"Engures pasta noda\u013ca","working_monday":"7:00 - 12:00","working_tuesday":"7:00 - 12:00","working_wednesday":"7:00 - 12:00","working_thursday":"7:00 - 12:00","working_friday":"7:00 - 12:00","working_saturday":"-","working_sunday":"-","phone":"67008001;27008001","inout":"0","region":"Tukuma raj.","city":null,"area":"Tukuma nov.","district":"Engures pag.","village":"Engure","street":"J\u016bras iela","house":"62","zipcode":"3113","address":"J\u016bras iela 62, Engure, Engures pag., Tukuma nov., LV-3113","lat":"57.1627190607","long":"23.2284811543","magento_region_id":"457","magento_region_code":"LV-TU","magento_region_name":"Tukuma novads","name_for_sorting":"Engure"},{"id":"388","postcode":"4840","label":"\u0112rg\u013cu pasta noda\u013ca","working_monday":"7:30-15:00","working_tuesday":"7:30-15:00","working_wednesday":"7:30-15:00","working_thursday":"7:30-15:00","working_friday":"7:30-15:00","working_saturday":"-","working_sunday":"-","phone":"67008001; 27008001","inout":"0","region":"Madonas raj.","city":null,"area":"Madonas nov.","district":"\u0112rg\u013cu pag.","village":"\u0112rg\u013ci","street":"R\u012bgas iela","house":"10","zipcode":"4840","address":"R\u012bgas iela 10, \u0112rg\u013ci, \u0112rg\u013cu pag., Madonas nov., LV-4840","lat":"56.8990971223","long":"25.6425713079","magento_region_id":"419","magento_region_code":"LV-MA","magento_region_name":"Madonas novads","name_for_sorting":"\u0112rg\u013ci"},{"id":"81","postcode":"3891","label":"Ezeres pasta noda\u013ca","working_monday":"8:00-13:00","working_tuesday":"8:00-13:00","working_wednesday":"8:00-13:00","working_thursday":"8:00-13:00","working_friday":"8:00-13:00","working_saturday":"-","working_sunday":"-","phone":"67008001;27008001","inout":"0","region":"Saldus raj.","city":null,"area":"Saldus nov.","district":"Ezeres pag.","village":"Ezere","street":"Centra iela","house":"4","zipcode":"3891","address":"Centra iela 4, Ezere, Ezeres pag., Saldus nov., LV-3891","lat":"56.4062300811","long":"22.3607011913","magento_region_id":"447","magento_region_code":"LV-SA","magento_region_name":"Saldus novads","name_for_sorting":"Ezere"},{"id":"176","postcode":"3430","label":"Grobi\u0146as pasta noda\u013ca","working_monday":"7:00-14:00","working_tuesday":"7:00-14:00","working_wednesday":"7:00-14:00","working_thursday":"7:00-14:00","working_friday":"7:00-14:00","working_saturday":"-","working_sunday":"-","phone":"67008001;27008001","inout":"0","region":"Liep\u0101jas raj.","city":"Grobi\u0146a","area":"Dienvidkurzemes nov.","district":null,"village":null,"street":"Liel\u0101 iela","house":"37","zipcode":"3430","address":"Liel\u0101 iela 37, Grobi\u0146a, Dienvidkurzemes nov., LV-3430","lat":"56.5353495683","long":"21.1678445435","magento_region_id":"456","magento_region_code":"LV-TA","magento_region_name":"Talsu novads","name_for_sorting":"Grobi\u0146a"},{"id":"321","postcode":"4401","label":"Gulbenes 1.pasta noda\u013ca","working_monday":"8:00 - 18:00","working_tuesday":"8:00 - 18:00","working_wednesday":"8:00 - 18:00","working_thursday":"8:00 - 18:00","working_friday":"8:00 - 18:00","working_saturday":"9:00-13:00","working_sunday":"-","phone":"67008001; 27008001","inout":"1","region":"Gulbenes raj.","city":"Gulbene","area":"Gulbenes nov.","district":null,"village":null,"street":"R\u012bgas iela","house":"30","zipcode":"4401","address":"R\u012bgas iela 30, Gulbene, Gulbenes nov., LV-4401","lat":"57.1713366009","long":"26.7580691698","magento_region_id":"396","magento_region_code":"LV-GU","magento_region_name":"Gulbenes novads","name_for_sorting":"Gulbene"},{"id":"208","postcode":"3913","label":"Iecavas pasta noda\u013ca","working_monday":"7:00-16:00","working_tuesday":"7:00-16:00","working_wednesday":"7:00-16:00","working_thursday":"7:00-16:00","working_friday":"7:00-16:00","working_saturday":"-","working_sunday":"-","phone":"67008001","inout":"0","region":"Bauskas raj.","city":"Iecava","area":"Bauskas nov.","district":null,"village":null,"street":"R\u012bgas iela","house":"12A","zipcode":"3913","address":"R\u012bgas iela 12A, Iecava, Bauskas nov., LV-3913","lat":"56.5956484327","long":"24.1940183407","magento_region_id":"380","magento_region_code":"LV-BU","magento_region_name":"Bauskas novads","name_for_sorting":"Iecava"},{"id":"416","postcode":"5052","label":"Ik\u0161\u0137iles pasta noda\u013ca","working_monday":"7:00-18:00","working_tuesday":"7:00-18:00","working_wednesday":"7:00-18:00","working_thursday":"7:00-17:00","working_friday":"7:00-17:00","working_saturday":"-","working_sunday":"-","phone":"67008001","inout":"1","region":"Ogres raj.","city":"Ik\u0161\u0137ile","area":"Ogres nov.","district":null,"village":null,"street":"Birzes iela","house":"33","zipcode":"5052","address":"Birzes iela 33, Ik\u0161\u0137ile, Ogres nov., LV-5052","lat":"56.8366426976","long":"24.4949296473","magento_region_id":"426","magento_region_code":"LV-OG","magento_region_name":"Ogres novads","name_for_sorting":"Ik\u0161\u0137ile"},{"id":"489","postcode":"5447","label":"Il\u016bkstes pasta noda\u013ca","working_monday":"08:00-17:00","working_tuesday":"08:00-17:00","working_wednesday":"08:00-17:00","working_thursday":"08:00-17:00","working_friday":"08:00-17:00","working_saturday":"-","working_sunday":"-","phone":"67008001; 27008001","inout":"0","region":"Daugavpils raj.","city":"Il\u016bkste","area":"Aug\u0161daugavas nov.","district":null,"village":null,"street":"Vien\u012bbas laukums","house":"3","zipcode":"5447","address":"Vien\u012bbas laukums 3, Il\u016bkste, Aug\u0161daugavas nov., LV-5447","lat":"55.9776900693","long":"26.2963258187","magento_region_id":"355","magento_region_code":"LV-DGV","magento_region_name":"Daugavpils","name_for_sorting":"Il\u016bkste"},{"id":"429","postcode":"5134","label":"Jaunjelgavas pasta noda\u013ca","working_monday":"7:00-14:00","working_tuesday":"7:00-14:00","working_wednesday":"7:00-14:00","working_thursday":"7:00-14:00","working_friday":"7:00-14:00","working_saturday":"-","working_sunday":"-","phone":"67008001","inout":"0","region":"Aizkraukles raj.","city":"Jaunjelgava","area":"Aizkraukles nov.","district":null,"village":null,"street":"L\u0101\u010dpl\u0113\u0161a iela","house":"11","zipcode":"5134","address":"L\u0101\u010dpl\u0113\u0161a iela 11, Jaunjelgava, Aizkraukles nov., LV-5134","lat":"56.6178007465","long":"25.0820876791","magento_region_id":"367","magento_region_code":"LV-AI","magento_region_name":"Aizkraukles novads","name_for_sorting":"Jaunjelgava"},{"id":"541","postcode":"4860","label":"Jaunkalsnavas pasta noda\u013ca","working_monday":"7:30-11:30-12:00-14:00","working_tuesday":"7:30-11:30-12:00-14:00","working_wednesday":"7:30-11:30-12:00-14:00","working_thursday":"7:30-11:30-12:00-14:00","working_friday":"7:30-11:30-12:00-14:00","working_saturday":"-","working_sunday":"-","phone":"67008001; 27008001","inout":"0","region":"Madonas raj.","city":null,"area":"Madonas nov.","district":"Kalsnavas pag.","village":"Jaunkalsnava","street":"Vesetas iela","house":"4","zipcode":"4860","address":"Vesetas iela 4, Jaunkalsnava, Kalsnavas pag., Madonas nov., LV-4860","lat":"56.6867822426","long":"25.9700882668","magento_region_id":"419","magento_region_code":"LV-MA","magento_region_name":"Madonas novads","name_for_sorting":"Jaunkalsnava"},{"id":"271","postcode":"4125","label":"Jaunpiebalgas pasta noda\u013ca","working_monday":"8:00-11:30; 12:00 - 14:00","working_tuesday":"8:00-11:30; 12:00 - 14:00","working_wednesday":"8:00-11:30; 12:00 - 14:00","working_thursday":"8:00-11:30; 12:00 - 14:00","working_friday":"8:00-11:30; 12:00 - 14:00","working_saturday":"-","working_sunday":"-","phone":"67008001; 27008001","inout":"0","region":"C\u0113su raj.","city":null,"area":"C\u0113su nov.","district":"Jaunpiebalgas pag.","village":"Jaunpiebalga","street":"Gaujas iela","house":"4","zipcode":"4125","address":"Gaujas iela 4, Jaunpiebalga, Jaunpiebalgas pag., C\u0113su nov., LV-4125","lat":"57.1807058473","long":"26.0540238719","magento_region_id":"387","magento_region_code":"LV-CE","magento_region_name":"C\u0113su novads","name_for_sorting":"Jaunpiebalga"},{"id":"169","postcode":"3145","label":"Jaunpils pasta noda\u013ca","working_monday":"7:00 - 14:00","working_tuesday":"7:00 - 14:00","working_wednesday":"7:00 - 14:00","working_thursday":"7:00 - 14:00","working_friday":"7:00 - 14:00","working_saturday":"-","working_sunday":"-","phone":"67008001;27008001","inout":"0","region":"Tukuma raj.","city":null,"area":"Tukuma nov.","district":"Jaunpils pag.","village":"Jaunpils","street":null,"house":"Pasta m\u0101ja","zipcode":"3145","address":"\"Pasta m\u0101ja\", Jaunpils, Jaunpils pag., Tukuma nov., LV-3145","lat":"56.7312195501","long":"23.013690057","magento_region_id":"457","magento_region_code":"LV-TU","magento_region_name":"Tukuma novads","name_for_sorting":"Jaunpils"},{"id":"430","postcode":"5201","label":"J\u0113kabpils pasta noda\u013ca","working_monday":"09:00-20:00","working_tuesday":"09:00-20:00","working_wednesday":"09:00-20:00","working_thursday":"09:00-20:00","working_friday":"09:00-20:00","working_saturday":"09:00-18:00","working_sunday":"09:00-18:00","phone":"+37167008001; +37127008001","inout":"1","region":"J\u0113kabpils raj.","city":"J\u0113kabpils","area":"J\u0113kabpils nov.","district":null,"village":null,"street":"Vien\u012bbas iela","house":"7","zipcode":"5201","address":"Vien\u012bbas iela 7, J\u0113kabpils, J\u0113kabpils nov., LV-5201","lat":"56.4954720882","long":"25.8783895817","magento_region_id":"405","magento_region_code":"LV-JK","magento_region_name":"J\u0113kabpils novads","name_for_sorting":"J\u0113kabpils"},{"id":"114","postcode":"3001","label":"Pasta centrs Jelgava","working_monday":"8:00-19:00 ","working_tuesday":"8:00-19:00 ","working_wednesday":"8:00-19:00 ","working_thursday":"8:00-19:00 ","working_friday":"8:00-19:00 ","working_saturday":"-","working_sunday":"-","phone":"67008001","inout":"1","region":null,"city":"Jelgava","area":null,"district":null,"village":null,"street":"Kato\u013cu iela","house":"2B","zipcode":"3001","address":"Kato\u013cu iela 2B, Jelgava, LV-3001","lat":"56.651647291","long":"23.724421261","magento_region_id":"356","magento_region_code":"LV-JEL","magento_region_name":"Jelgava","name_for_sorting":"Jelgava"},{"id":"125","postcode":"3002","label":"Jelgavas 2.pasta noda\u013ca","working_monday":"8:00-17:00","working_tuesday":"8:00-17:00","working_wednesday":"8:00-19:00","working_thursday":"8:00-17:00","working_friday":"8:00-17:00","working_saturday":"-","working_sunday":"-","phone":"67008001","inout":"0","region":null,"city":"Jelgava","area":null,"district":null,"village":null,"street":"Garozas iela","house":"22","zipcode":"3002","address":"Garozas iela 22, Jelgava, LV-3002","lat":"56.6552983357","long":"23.7503274897","magento_region_id":"356","magento_region_code":"LV-JEL","magento_region_name":"Jelgava","name_for_sorting":"Jelgava"},{"id":"79","postcode":"2016","label":"Kauguru pasta noda\u013ca","working_monday":"8:00-19:00  ","working_tuesday":"8:00-19:00  ","working_wednesday":"8:00-19:00  ","working_thursday":"8:00-19:00  ","working_friday":"8:00-19:00  ","working_saturday":"-","working_sunday":"-","phone":"67008001","inout":"1","region":null,"city":"J\u016brmala","area":null,"district":null,"village":null,"street":"Skolas iela","house":"48","zipcode":"2016","address":"Skolas iela 48, J\u016brmala, LV-2016","lat":"56.960143459","long":"23.603952829","magento_region_id":"358","magento_region_code":"LV-JUR","magento_region_name":"J\u016brmala","name_for_sorting":"J\u016brmala"},{"id":"96","postcode":"2008","label":"Mellu\u017eu pasta noda\u013ca","working_monday":"8:00-15:00","working_tuesday":"8:00-15:00","working_wednesday":"8:00-15:00","working_thursday":"8:00-19:00","working_friday":"8:00-15:00","working_saturday":"-","working_sunday":"-","phone":"67008001","inout":"0","region":null,"city":"J\u016brmala","area":null,"district":null,"village":null,"street":"Mellu\u017eu prospekts","house":"42 k-3","zipcode":"2008","address":"Mellu\u017eu prospekts 42 k-3, J\u016brmala, LV-2008","lat":"56.9608911102","long":"23.713096898","magento_region_id":"358","magento_region_code":"LV-JUR","magento_region_name":"J\u016brmala","name_for_sorting":"J\u016brmala"},{"id":"97","postcode":"2015","label":"Dubultu pasta noda\u013ca","working_monday":"8:00-19:00  ","working_tuesday":"8:00-19:00  ","working_wednesday":"8:00-19:00  ","working_thursday":"8:00-19:00  ","working_friday":"8:00-19:00  ","working_saturday":"-","working_sunday":"-","phone":"67008001","inout":"1","region":null,"city":"J\u016brmala","area":null,"district":null,"village":null,"street":"Str\u0113lnieku prospekts","house":"16","zipcode":"2015","address":"Str\u0113lnieku prospekts 16, J\u016brmala, LV-2015","lat":"56.9666460568","long":"23.7685619002","magento_region_id":"358","magento_region_code":"LV-JUR","magento_region_name":"J\u016brmala","name_for_sorting":"J\u016brmala"},{"id":"582","postcode":"2011","label":"Slokas pasta noda\u013ca","working_monday":"09:00-19:00","working_tuesday":"09:00-18:00","working_wednesday":"09:00-17:00","working_thursday":"09:00-17:00","working_friday":"09:00-18:00","working_saturday":"-","working_sunday":"-","phone":"67008001","inout":"1","region":null,"city":"J\u016brmala","area":null,"district":null,"village":null,"street":"Hercoga J\u0113kaba iela","house":"7 k-3","zipcode":"2011","address":"Hercoga J\u0113kaba iela 7 k-3, J\u016brmala, LV-2011","lat":"56.9463718109","long":"23.6169352355","magento_region_id":"358","magento_region_code":"LV-JUR","magento_region_name":"J\u016brmala","name_for_sorting":"J\u016brmala"},{"id":"487","postcode":"5450","label":"Kalupes pasta noda\u013ca","working_monday":"9:00-14:30","working_tuesday":"9:00-14:30","working_wednesday":"9:00-14:30","working_thursday":"9:00-14:30","working_friday":"9:00-14:30","working_saturday":"-","working_sunday":"-","phone":"67008001; 27008001","inout":"0","region":"Daugavpils raj.","city":null,"area":"Aug\u0161daugavas nov.","district":"Kalupes pag.","village":"Kalupe","street":"Liel\u0101 iela","house":"43","zipcode":"5450","address":"Liel\u0101 iela 43, Kalupe, Kalupes pag., Aug\u0161daugavas nov., LV-5450","lat":"56.0964193344","long":"26.5518298427","magento_region_id":"410","magento_region_code":"LV-KR","magento_region_name":"Kr\u0101slavas novads","name_for_sorting":"Kalupe"},{"id":"138","postcode":"3120","label":"Kandavas pasta noda\u013ca","working_monday":"7:00-14:00 ","working_tuesday":"7:00-14:00 ","working_wednesday":"7:00-14:00 ","working_thursday":"7:00-14:00 ","working_friday":"7:00-14:00 ","working_saturday":"-","working_sunday":"-","phone":"67008001;27008001","inout":"0","region":"Tukuma raj.","city":"Kandava","area":"Tukuma nov.","district":null,"village":null,"street":"Abavas iela","house":"2","zipcode":"3120","address":"Abavas iela 2, Kandava, Tukuma nov., LV-3120","lat":"57.034840408","long":"22.7809837414","magento_region_id":"457","magento_region_code":"LV-TU","magento_region_name":"Tukuma novads","name_for_sorting":"Kandava"},{"id":"588","postcode":"5717","label":"K\u0101rsavas pasta noda\u013ca","working_monday":"8:00-17:00","working_tuesday":"8:00-17:00","working_wednesday":"8:00-17:00","working_thursday":"8:00-17:00","working_friday":"8:00-17:00","working_saturday":"-","working_sunday":"-","phone":"67008001; 27008001","inout":"0","region":"Ludzas raj.","city":"K\u0101rsava","area":"Ludzas nov.","district":null,"village":null,"street":"Vien\u012bbas iela","house":"53","zipcode":"5717","address":"Vien\u012bbas iela 53, K\u0101rsava, Ludzas nov., LV-5717","lat":"56.7870198402","long":"27.67520236","magento_region_id":"416","magento_region_code":"LV-LU","magento_region_name":"Ludzas novads","name_for_sorting":"K\u0101rsava"},{"id":"411","postcode":"5020","label":"\u0136eguma pasta noda\u013ca","working_monday":"8:00-17:00","working_tuesday":"8:00-17:00","working_wednesday":"8:00-17:00","working_thursday":"8:00-17:00","working_friday":"8:00-17:00","working_saturday":"-","working_sunday":"-","phone":"67008001","inout":"0","region":"Ogres raj.","city":"\u0136egums","area":"Ogres nov.","district":null,"village":null,"street":"R\u012bgas iela","house":"10","zipcode":"5020","address":"R\u012bgas iela 10, \u0136egums, Ogres nov., LV-5020","lat":"56.7406972107","long":"24.7247079599","magento_region_id":"426","magento_region_code":"LV-OG","magento_region_name":"Ogres novads","name_for_sorting":"\u0136egums"},{"id":"538","postcode":"2123","label":"\u0136ekavas pasta noda\u013ca","working_monday":"8:00-17:00","working_tuesday":"8:00-17:00","working_wednesday":"8:00-17:00","working_thursday":"8:00-19:00","working_friday":"8:00-15:00","working_saturday":"-","working_sunday":"-","phone":"67008001","inout":"1","region":"R\u012bgas raj.","city":"\u0136ekava","area":"\u0136ekavas nov.","district":null,"village":null,"street":"Gaismas iela","house":"17A","zipcode":"2123","address":"Gaismas iela 17A, \u0136ekava, \u0136ekavas nov., LV-2123","lat":"56.8242718742","long":"24.2301185168","magento_region_id":"474","magento_region_code":"\u0136ekavas novads","magento_region_name":"\u0136ekavas novads","name_for_sorting":"\u0136ekava"},{"id":"423","postcode":"5113","label":"Kokneses pasta noda\u013ca","working_monday":"8:00-16:00","working_tuesday":"8:00-16:00","working_wednesday":"8:00-16:00","working_thursday":"8:00-15:00","working_friday":"8:00-15:00","working_saturday":"-","working_sunday":"-","phone":"67008001","inout":"0","region":"Aizkraukles raj.","city":"Koknese","area":"Aizkraukles nov.","district":null,"village":null,"street":"1905. gada iela","house":"7","zipcode":"5113","address":"1905. gada iela 7, Koknese, Aizkraukles nov., LV-5113","lat":"56.6446068308","long":"25.4321887773","magento_region_id":"367","magento_region_code":"LV-AI","magento_region_name":"Aizkraukles novads","name_for_sorting":"Koknese"},{"id":"484","postcode":"5601","label":"Kr\u0101slavas 1.pasta noda\u013ca","working_monday":"9:00-17:00","working_tuesday":"9:00-17:00","working_wednesday":"9:00-17:00","working_thursday":"9:00-17:00","working_friday":"9:00-17:00","working_saturday":"-","working_sunday":"-","phone":"67008001; 27008001","inout":"1","region":"Kr\u0101slavas raj.","city":"Kr\u0101slava","area":"Kr\u0101slavas nov.","district":null,"village":null,"street":"R\u012bgas iela","house":"34","zipcode":"5601","address":"R\u012bgas iela 34, Kr\u0101slava, Kr\u0101slavas nov., LV-5601","lat":"55.8960734267","long":"27.1640289668","magento_region_id":"410","magento_region_code":"LV-KR","magento_region_name":"Kr\u0101slavas novads","name_for_sorting":"Kr\u0101slava"},{"id":"533","postcode":"3301","label":"Kuld\u012bgas 1.pasta noda\u013ca","working_monday":"08:00-18:00","working_tuesday":"08:00-18:00","working_wednesday":"08:00-18:00","working_thursday":"08:00-18:00","working_friday":"08:00-18:00","working_saturday":"9:00-12:00","working_sunday":"-","phone":"+37167008001;27008001","inout":"1","region":"Kuld\u012bgas raj.","city":"Kuld\u012bga","area":"Kuld\u012bgas nov.","district":null,"village":null,"street":"Liep\u0101jas iela","house":"34","zipcode":"3301","address":"Liep\u0101jas iela 34, Kuld\u012bga, Kuld\u012bgas nov., LV-3301","lat":"56.9683316184","long":"21.9629626322","magento_region_id":"411","magento_region_code":"LV-KU","magento_region_name":"Kuld\u012bgas novads","name_for_sorting":"Kuld\u012bga"},{"id":"136","postcode":"3118","label":"Lapme\u017eciema pasta noda\u013ca","working_monday":"7:00 - 12:00","working_tuesday":"7:00 - 12:00","working_wednesday":"7:00 - 12:00","working_thursday":"7:00 - 12:00","working_friday":"7:00 - 12:00","working_saturday":"-","working_sunday":"-","phone":"67008001;27008001","inout":"0","region":"Tukuma raj.","city":null,"area":"Tukuma nov.","district":"Lapme\u017eciema pag.","village":"Lapme\u017eciems","street":"Liepu iela","house":"4","zipcode":"3118","address":"Liepu iela 4, Lapme\u017eciems, Lapme\u017eciema pag., Tukuma nov., LV-3118","lat":"57.0007479405","long":"23.5121982753","magento_region_id":"457","magento_region_code":"LV-TU","magento_region_name":"Tukuma novads","name_for_sorting":"Lapme\u017eciems"},{"id":"539","postcode":"4412","label":"Lejasciema pasta noda\u013ca","working_monday":"7:00-11:00     11:30-13:00","working_tuesday":"7:00-11:00     11:30-13:00","working_wednesday":"7:00-11:00      11:30-13:00","working_thursday":"7:00-11:00      11:30-13:00","working_friday":"7:00-11:00      11:30-12:30","working_saturday":"-","working_sunday":"-","phone":"67008001; 27008001","inout":"0","region":"Gulbenes raj.","city":null,"area":"Gulbenes nov.","district":"Lejasciema pag.","village":"Lejasciems","street":"Annas Sakses iela","house":"2","zipcode":"4412","address":"Annas Sakses iela 2, Lejasciems, Lejasciema pag., Gulbenes nov., LV-4412","lat":"57.2782433341","long":"26.5760414137","magento_region_id":"396","magento_region_code":"LV-GU","magento_region_name":"Gulbenes novads","name_for_sorting":"Lejasciems"},{"id":"85","postcode":"1044","label":"R\u012bgas 44.pasta noda\u013ca","working_monday":"9:00-17:00","working_tuesday":"9:00-17:00","working_wednesday":"9:00-17:00","working_thursday":"9:00-17:00","working_friday":"9:00-14:00","working_saturday":"-","working_sunday":"-","phone":"67008001","inout":"1","region":"R\u012bgas raj.","city":null,"area":"M\u0101rupes nov.","district":"M\u0101rupes pag.","village":"Lidosta R\u012bga","street":"Zieme\u013cu iela","house":"10","zipcode":"1044","address":"Zieme\u013cu iela 10, Lidosta R\u012bga, M\u0101rupes pag., M\u0101rupes nov., LV-1044","lat":"56.9279547842","long":"23.987368697","magento_region_id":"422","magento_region_code":"M\u0101rupes novads","magento_region_name":"M\u0101rupes novads","name_for_sorting":"Lidosta R\u012bga"},{"id":"537","postcode":"5070","label":"Lielv\u0101rdes pasta noda\u013ca","working_monday":"7:00-18:00","working_tuesday":"7:00-18:00","working_wednesday":"7:00-18:00","working_thursday":"7:00-18:00","working_friday":"7:00-18:00","working_saturday":"-","working_sunday":"-","phone":"67008001","inout":"1","region":"Ogres raj.","city":"Lielv\u0101rde","area":"Ogres nov.","district":null,"village":null,"street":"L\u0101\u010dpl\u0113\u0161a iela","house":"18A","zipcode":"5070","address":"L\u0101\u010dpl\u0113\u0161a iela 18A, Lielv\u0101rde, Ogres nov., LV-5070","lat":"56.7175641762","long":"24.8096273044","magento_region_id":"426","magento_region_code":"LV-OG","magento_region_name":"Ogres novads","name_for_sorting":"Lielv\u0101rde"},{"id":"273","postcode":"4128","label":"Liepas pasta noda\u013ca","working_monday":"7:30-12:00; 12;30-15:00","working_tuesday":"7:30-12:00; 12;30-15:00","working_wednesday":"7:30-12:00; 12;30-15:00","working_thursday":"7:30-12:00; 12;30-15:00","working_friday":"7:30-12:00; 12;30-15:00","working_saturday":"-","working_sunday":"-","phone":"67008001; 27008001","inout":"0","region":"C\u0113su raj.","city":null,"area":"C\u0113su nov.","district":"Liepas pag.","village":"Liepa","street":"R\u016bpn\u012bcas iela","house":"3","zipcode":"4128","address":"R\u016bpn\u012bcas iela 3, Liepa, Liepas pag., C\u0113su nov., LV-4128","lat":"57.3891604141","long":"25.4195947008","magento_region_id":"387","magento_region_code":"LV-CE","magento_region_name":"C\u0113su novads","name_for_sorting":"Liepa"},{"id":"64","postcode":"3403","label":"Liep\u0101jas 3.pasta noda\u013ca","working_monday":"9:00-19:00","working_tuesday":"9:00-19:00","working_wednesday":"9:00-19:00","working_thursday":"9:00-19:00","working_friday":"9:00-19:00","working_saturday":"9:00-15:00","working_sunday":"9:00-15:00","phone":"67008001;27008001","inout":"1","region":null,"city":"Liep\u0101ja","area":null,"district":null,"village":null,"street":"Jaun\u0101 ostmala","house":"3\/5, pasta noda\u013ca","zipcode":"3403","address":"Jaun\u0101 ostmala 3\/5, pasta noda\u013ca, Liep\u0101ja, LV-3403","lat":"56.514950183","long":"21.0183250909","magento_region_id":"359","magento_region_code":"LV-LPX","magento_region_name":"Liep\u0101ja","name_for_sorting":"Liep\u0101ja"},{"id":"68","postcode":"3405","label":"Liep\u0101jas 5.pasta noda\u013ca","working_monday":"8:00-18:00","working_tuesday":"8:00-18:00","working_wednesday":"8:00-18:00","working_thursday":"8:00-18:00","working_friday":"8:00-18:00","working_saturday":"-","working_sunday":"-","phone":"67008001;27008001","inout":"1","region":null,"city":"Liep\u0101ja","area":null,"district":null,"village":null,"street":"Si\u013c\u0137u iela","house":"24","zipcode":"3405","address":"Si\u013c\u0137u iela 24, Liep\u0101ja, LV-3405","lat":"56.5315231971","long":"21.0094391694","magento_region_id":"359","magento_region_code":"LV-LPX","magento_region_name":"Liep\u0101ja","name_for_sorting":"Liep\u0101ja"},{"id":"71","postcode":"3414","label":"Liep\u0101jas 14.pasta noda\u013ca","working_monday":"8:00-17:00","working_tuesday":"8:00-17:00","working_wednesday":"8:00-17:00","working_thursday":"8:00-17:00","working_friday":"8:00-17:00","working_saturday":"-","working_sunday":"-","phone":"67008001;27008001","inout":"0","region":null,"city":"Liep\u0101ja","area":null,"district":null,"village":null,"street":"Imantas iela","house":"3","zipcode":"3414","address":"Imantas iela 3, Liep\u0101ja, LV-3414","lat":"56.5505900362","long":"21.0123306614","magento_region_id":"359","magento_region_code":"LV-LPX","magento_region_name":"Liep\u0101ja","name_for_sorting":"Liep\u0101ja"},{"id":"72","postcode":"3416","label":"Liep\u0101jas 16.pasta noda\u013ca","working_monday":"8:00-18:00","working_tuesday":"8:00-18:00","working_wednesday":"8:00-18:00","working_thursday":"8:00-18:00","working_friday":"8:00-18:00","working_saturday":"9:00-13:00","working_sunday":"-","phone":"67008001;27008001","inout":"1","region":null,"city":"Liep\u0101ja","area":null,"district":null,"village":null,"street":"Klaip\u0113das iela","house":"74","zipcode":"3416","address":"Klaip\u0113das iela 74, Liep\u0101ja, LV-3416","lat":"56.489850797","long":"21.0048171153","magento_region_id":"359","magento_region_code":"LV-LPX","magento_region_name":"Liep\u0101ja","name_for_sorting":"Liep\u0101ja"},{"id":"624","postcode":"3401","label":"Liep\u0101jas 1.pasta noda\u013ca","working_monday":"8:00-18:00","working_tuesday":"8:00-18:00","working_wednesday":"8:00-18:00","working_thursday":"8:00-18:00","working_friday":"8:00-18:00","working_saturday":"-","working_sunday":"-","phone":"67008001; 27008001","inout":"1","region":null,"city":"Liep\u0101ja","area":null,"district":null,"village":null,"street":"Pasta iela","house":"4","zipcode":"3401","address":"Pasta iela 4, Liep\u0101ja, LV-3401","lat":"56.5108663441","long":"21.0124591154","magento_region_id":"359","magento_region_code":"LV-LPX","magento_region_name":"Liep\u0101ja","name_for_sorting":"Liep\u0101ja"},{"id":"231","postcode":"4001","label":"Limba\u017eu 1.pasta noda\u013ca","working_monday":"7:30-18:00","working_tuesday":"7:30-18:00","working_wednesday":"7:30-18:00","working_thursday":"7:30-18:00","working_friday":"7:30-18:00","working_saturday":"9:00-13:00","working_sunday":"-","phone":"67008001; 27008001","inout":"1","region":"Limba\u017eu raj.","city":"Limba\u017ei","area":"Limba\u017eu nov.","district":null,"village":null,"street":"C\u0113su iela","house":"22","zipcode":"4001","address":"C\u0113su iela 22, Limba\u017ei, Limba\u017eu nov., LV-4001","lat":"57.5126188786","long":"24.7194473887","magento_region_id":"414","magento_region_code":"LV-LM","magento_region_name":"Limba\u017eu novads","name_for_sorting":"Limba\u017ei"},{"id":"459","postcode":"5316","label":"L\u012bv\u0101nu pasta noda\u013ca","working_monday":"8:00-17:00","working_tuesday":"8:00-17:00","working_wednesday":"8:00-17:00","working_thursday":"8:00-17:00","working_friday":"8:00-17:00","working_saturday":"-","working_sunday":"-","phone":"67008001; 27008001","inout":"1","region":"Prei\u013cu raj.","city":"L\u012bv\u0101ni","area":"L\u012bv\u0101nu nov.","district":null,"village":null,"street":"R\u016bpniec\u012bbas iela","house":"1","zipcode":"5316","address":"R\u016bpniec\u012bbas iela 1, L\u012bv\u0101ni, L\u012bv\u0101nu nov., LV-5316","lat":"56.3508037814","long":"26.1781239251","magento_region_id":"418","magento_region_code":"L\u012bv\u0101nu novads","magento_region_name":"L\u012bv\u0101nu novads","name_for_sorting":"L\u012bv\u0101ni"},{"id":"404","postcode":"4425","label":"Lizuma pasta noda\u013ca","working_monday":"8:30-13:00; 13:30-16:30","working_tuesday":"8:30-13:00; 13:30-16:30","working_wednesday":"8:30-13:00; 13:30-16:30","working_thursday":"8:30-13:00; 13:30-16:30","working_friday":"8:30-13:00; 13:30-16:30","working_saturday":"-","working_sunday":"-","phone":"67008001; 27008001","inout":"0","region":"Gulbenes raj.","city":null,"area":"Gulbenes nov.","district":"Lizuma pag.","village":"Lizums","street":null,"house":"Ak\u0101cijas","zipcode":"4425","address":"\"Ak\u0101cijas\", Lizums, Lizuma pag., Gulbenes nov., LV-4425","lat":"57.1904174758","long":"26.3712180421","magento_region_id":"396","magento_region_code":"LV-GU","magento_region_name":"Gulbenes novads","name_for_sorting":"Lizums"},{"id":"546","postcode":"4830","label":"Lub\u0101nas pasta noda\u013ca","working_monday":"8:00-12:30; 13:00-15:30","working_tuesday":"8:00-12:30; 13:00-15:30","working_wednesday":"8:00-12:30; 13:00-15:30","working_thursday":"8:00-12:30; 13:00-15:30","working_friday":"8:00-12:30; 13:00-15:30","working_saturday":"-","working_sunday":"-","phone":"67008001; 27008001","inout":"0","region":"Madonas raj.","city":"Lub\u0101na","area":"Madonas nov.","district":null,"village":null,"street":"Oskara Kalpaka iela","house":"5","zipcode":"4830","address":"Oskara Kalpaka iela 5, Lub\u0101na, Madonas nov., LV-4830","lat":"56.9019210303","long":"26.7219423109","magento_region_id":"419","magento_region_code":"LV-MA","magento_region_name":"Madonas novads","name_for_sorting":"Lub\u0101na"},{"id":"508","postcode":"5701","label":"Ludzas 1.pasta noda\u013ca","working_monday":"8:00-17:00","working_tuesday":"8:00-17:00","working_wednesday":"8:00-17:00","working_thursday":"8:00-17:00","working_friday":"8:00-17:00","working_saturday":"-","working_sunday":"-","phone":"67008001; 27008001","inout":"1","region":"Ludzas raj.","city":"Ludza","area":"Ludzas nov.","district":null,"village":null,"street":"Rai\u0146a iela","house":"25","zipcode":"5701","address":"Rai\u0146a iela 25, Ludza, Ludzas nov., LV-5701","lat":"56.5441980831","long":"27.7194188501","magento_region_id":"416","magento_region_code":"LV-LU","magento_region_name":"Ludzas novads","name_for_sorting":"Ludza"},{"id":"415","postcode":"5045","label":"Madlienas pasta noda\u013ca","working_monday":"08:00-14:00","working_tuesday":"08:00-14:00","working_wednesday":"08:00-14:00","working_thursday":"08:00-14:00","working_friday":"08:00-14:00","working_saturday":"-","working_sunday":"-","phone":"67008001","inout":"0","region":"Ogres raj.","city":null,"area":"Ogres nov.","district":"Madlienas pag.","village":"Madliena","street":null,"house":"ATC \u0113ka","zipcode":"5045","address":"\"ATC \u0113ka\", Madliena, Madlienas pag., Ogres nov., LV-5045","lat":"56.8463381072","long":"25.1542248274","magento_region_id":"426","magento_region_code":"LV-OG","magento_region_name":"Ogres novads","name_for_sorting":"Madliena"},{"id":"571","postcode":"4801","label":"Madonas 1.pasta noda\u013ca","working_monday":"8:00-18:00","working_tuesday":"8:00-18:00","working_wednesday":"8:00-18:00","working_thursday":"8:00-18:00","working_friday":"8:00-18:00","working_saturday":"9:00-13:00","working_sunday":"-","phone":"67008001; 27008001","inout":"1","region":"Madonas raj.","city":"Madona","area":"Madonas nov.","district":null,"village":null,"street":"Saules iela","house":"21","zipcode":"4801","address":"Saules iela 21, Madona, Madonas nov., LV-4801","lat":"56.8531931584","long":"26.2223551538","magento_region_id":"419","magento_region_code":"LV-MA","magento_region_name":"Madonas novads","name_for_sorting":"Madona"},{"id":"131","postcode":"2152","label":"M\u0101lpils pasta noda\u013ca","working_monday":"08:00-15:00","working_tuesday":"08:00-15:00","working_wednesday":"08:00-15:00","working_thursday":"09:00-18:00","working_friday":"08:00-15:00","working_saturday":"-","working_sunday":"-","phone":" 67008001","inout":"0","region":"R\u012bgas raj.","city":null,"area":"Siguldas nov.","district":"M\u0101lpils pag.","village":"M\u0101lpils","street":"N\u0101kotnes iela","house":"8","zipcode":"2152","address":"N\u0101kotnes iela 8, M\u0101lpils, M\u0101lpils pag., Siguldas nov., LV-2152","lat":"57.0103977164","long":"24.9525665923","magento_region_id":"449","magento_region_code":"Siguldas novads","magento_region_name":"Siguldas novads","name_for_sorting":"M\u0101lpils"},{"id":"356","postcode":"4630","label":"Maltas pasta noda\u013ca","working_monday":"8:00-16:00","working_tuesday":"8:00-16:00","working_wednesday":"8:00-16:00","working_thursday":"8:00-16:00","working_friday":"8:00-16:00","working_saturday":"-","working_sunday":"-","phone":"67008001; 27008001","inout":"0","region":"R\u0113zeknes raj.","city":null,"area":"R\u0113zeknes nov.","district":"Maltas pag.","village":"Malta","street":"Stacijas iela","house":"79","zipcode":"4630","address":"Stacijas iela 79, Malta, Maltas pag., R\u0113zeknes nov., LV-4630","lat":"56.3461718727","long":"27.1604720209","magento_region_id":"442","magento_region_code":"LV-RE","magento_region_name":"R\u0113zeknes novads","name_for_sorting":"Malta"},{"id":"18","postcode":"4025","label":"Skultes pasta noda\u013ca","working_monday":"8:00-12:00; 12:30-15:30","working_tuesday":"8:00-12:00; 12:30-15:30","working_wednesday":"8:00-12:00; 12:30-15:30","working_thursday":"8:00-12:00; 12:30-15:30","working_friday":"8:00-12:00; 12:30-15:30","working_saturday":"-","working_sunday":"-","phone":"67008001; 27008001","inout":"0","region":"Limba\u017eu raj.","city":null,"area":"Limba\u017eu nov.","district":"Skultes pag.","village":"Mandegas","street":null,"house":"Mandagas","zipcode":"4025","address":"\"Mandagas\", Mandegas, Skultes pag., Limba\u017eu nov., LV-4025","lat":"57.3301288639","long":"24.4872033891","magento_region_id":"414","magento_region_code":"LV-LM","magento_region_name":"Limba\u017eu novads","name_for_sorting":"Mandegas"},{"id":"112","postcode":"2167","label":"M\u0101rupes pasta noda\u013ca","working_monday":"8:00-20:00","working_tuesday":"8:00-20:00","working_wednesday":"8:00-20:00","working_thursday":"8:00-20:00","working_friday":"8:00-20:00","working_saturday":"10:00-18:00","working_sunday":"10:00-17:00","phone":"67008001","inout":"1","region":"R\u012bgas raj.","city":"M\u0101rupe","area":"M\u0101rupes nov.","district":null,"village":null,"street":"Daugavas iela","house":"31","zipcode":"2167","address":"Daugavas iela 31, M\u0101rupe, M\u0101rupes nov., LV-2167","lat":"56.9046552662","long":"24.0549743734","magento_region_id":"422","magento_region_code":"M\u0101rupes novads","magento_region_name":"M\u0101rupes novads","name_for_sorting":"M\u0101rupe"},{"id":"285","postcode":"4215","label":"Mazsalacas pasta noda\u013ca","working_monday":"8:00-17:00","working_tuesday":"8:00-17:00","working_wednesday":"8:00-17:00","working_thursday":"8:00-17:00","working_friday":"8:00-17:00","working_saturday":"-","working_sunday":"-","phone":"67008001; 27008001","inout":"0","region":"Valmieras raj.","city":"Mazsalaca","area":"Valmieras nov.","district":null,"village":null,"street":"Bazn\u012bcas iela","house":"9","zipcode":"4215","address":"Bazn\u012bcas iela 9, Mazsalaca, Valmieras nov., LV-4215","lat":"57.8591823555","long":"25.0583653636","magento_region_id":"461","magento_region_code":"LV-VM","magento_region_name":"Valmieras novads","name_for_sorting":"Mazsalaca"},{"id":"528","postcode":"3284","label":"M\u0113rsraga pasta noda\u013ca","working_monday":"8:00 - 13:00","working_tuesday":"8:00 - 13:00","working_wednesday":"8:00 - 13:00","working_thursday":"8:00 - 13:00","working_friday":"8:00 - 13:00","working_saturday":"-","working_sunday":"-","phone":"67008001;27008001","inout":"0","region":"Talsu raj.","city":null,"area":"Talsu nov.","district":"M\u0113rsraga pag.","village":"M\u0113rsrags","street":"Dzintaru iela","house":"1","zipcode":"3284","address":"Dzintaru iela 1 - 54, M\u0113rsrags, M\u0113rsraga pag., Talsu nov., LV-3284","lat":"57.3379624461","long":"23.1214164544","magento_region_id":"456","magento_region_code":"LV-TA","magento_region_name":"Talsu novads","name_for_sorting":"M\u0113rsrags"},{"id":"476","postcode":"5462","label":"Naujenes pasta noda\u013ca","working_monday":"8:00-13:30","working_tuesday":"8:00-13:30","working_wednesday":"8:00-13:30","working_thursday":"8:00-13:30","working_friday":"8:00-13:30","working_saturday":"-","working_sunday":"-","phone":"67008001; 27008001","inout":"0","region":"Daugavpils raj.","city":null,"area":"Aug\u0161daugavas nov.","district":"Naujenes pag.","village":"Naujene","street":"Skolas iela","house":"10","zipcode":"5462","address":"Skolas iela 10, Naujene, Naujenes pag., Aug\u0161daugavas nov., LV-5462","lat":"55.9377687768","long":"26.7195203876","magento_region_id":"355","magento_region_code":"LV-DGV","magento_region_name":"Daugavpils","name_for_sorting":"Naujene"},{"id":"1","postcode":"5118","label":"Neretas pasta noda\u013ca","working_monday":"7:00-14:00","working_tuesday":"7:00-14:00","working_wednesday":"7:00-14:00","working_thursday":"7:00-14:00","working_friday":"7:00-14:00","working_saturday":"-","working_sunday":"-","phone":"67008001","inout":"0","region":"Aizkraukles raj.","city":null,"area":"Aizkraukles nov.","district":"Neretas pag.","village":"Nereta","street":"P\u0113tera Lodzi\u0146a iela","house":"2","zipcode":"5118","address":"P\u0113tera Lodzi\u0146a iela 2, Nereta, Neretas pag., Aizkraukles nov., LV-5118","lat":"56.2039121271","long":"25.3090591955","magento_region_id":"367","magento_region_code":"LV-AI","magento_region_name":"Aizkraukles novads","name_for_sorting":"Nereta"},{"id":"29","postcode":"3473","label":"N\u012bcas pasta noda\u013ca","working_monday":"7:00-14:00","working_tuesday":"7:00-14:00","working_wednesday":"7:00-14:00","working_thursday":"7:00-14:00","working_friday":"7:00-14:00","working_saturday":"-","working_sunday":"-","phone":"67008001","inout":"0","region":"Liep\u0101jas raj.","city":null,"area":"Dienvidkurzemes nov.","district":"N\u012bcas pag.","village":"N\u012bca","street":"B\u0101rtas iela","house":"6","zipcode":"3473","address":"B\u0101rtas iela 6, N\u012bca, N\u012bcas pag., Dienvidkurzemes nov., LV-3473","lat":"56.346962052","long":"21.0663142928","magento_region_id":"390","magento_region_code":"LV-DO","magento_region_name":"Dobeles novads","name_for_sorting":"N\u012bca"},{"id":"209","postcode":"5001","label":"Ogres 1.pasta noda\u013ca","working_monday":"8:00-19:00","working_tuesday":"8:00-18:00","working_wednesday":"8:00-18:00","working_thursday":"8:00-18:00","working_friday":"8:00-19:00","working_saturday":"-","working_sunday":"-","phone":"67008001","inout":"1","region":"Ogres raj.","city":"Ogre","area":"Ogres nov.","district":null,"village":null,"street":"Br\u012bv\u012bbas iela","house":"38","zipcode":"5001","address":"Br\u012bv\u012bbas iela 38, Ogre, Ogres nov., LV-5001","lat":"56.8181853413","long":"24.6061632108","magento_region_id":"426","magento_region_code":"LV-OG","magento_region_name":"Ogres novads","name_for_sorting":"Ogre"},{"id":"210","postcode":"5003","label":"Ogres 3.pasta noda\u013ca","working_monday":"8:00-18:00","working_tuesday":"8:00-18:00","working_wednesday":"8:00-19:00","working_thursday":"8:00-18:00","working_friday":"8:00-18:00","working_saturday":"-","working_sunday":"-","phone":"67008001","inout":"1","region":"Ogres raj.","city":"Ogre","area":"Ogres nov.","district":null,"village":null,"street":"M\u0101lkalnes prospekts","house":"26","zipcode":"5001","address":"M\u0101lkalnes prospekts 26, Ogre, Ogres nov., LV-5001","lat":"56.823280286","long":"24.598625939","magento_region_id":"426","magento_region_code":"LV-OG","magento_region_name":"Ogres novads","name_for_sorting":"Ogre"},{"id":"413","postcode":"5041","label":"Ogresgala pasta noda\u013ca","working_monday":"07:00-11:30","working_tuesday":"07:00-11:30","working_wednesday":"07:00-11:30","working_thursday":"07:00-11:30","working_friday":"07:00-11:30","working_saturday":"-","working_sunday":"-","phone":"67008001","inout":"0","region":"Ogres raj.","city":null,"area":"Ogres nov.","district":"Ogresgala pag.","village":"Ogresgals","street":"Bumbieru iela","house":"9","zipcode":"5041","address":"Bumbieru iela 9, Ogresgals, Ogresgala pag., Ogres nov., LV-5041","lat":"56.8069306017","long":"24.7285335318","magento_region_id":"426","magento_region_code":"LV-OG","magento_region_name":"Ogres novads","name_for_sorting":"Ogresgals"},{"id":"101","postcode":"2114","label":"Olaines pasta noda\u013ca","working_monday":"8:00-15:00","working_tuesday":"7:00-19:00","working_wednesday":"8:00-15:00","working_thursday":"7:00-19:00","working_friday":"8:00-15:00","working_saturday":"-","working_sunday":"-","phone":"67008001","inout":"1","region":"R\u012bgas raj.","city":"Olaine","area":"Olaines nov.","district":null,"village":null,"street":"Zeiferta iela","house":"13A","zipcode":"2114","address":"Zeiferta iela 13A, Olaine, Olaines nov., LV-2114","lat":"56.7887670415","long":"23.9391735035","magento_region_id":"427","magento_region_code":"Olaines novads","magento_region_name":"Olaines novads","name_for_sorting":"Olaine"},{"id":"553","postcode":"3018","label":"Ozolnieku pasta noda\u013ca","working_monday":"8:00-15:00","working_tuesday":"8:00-18:00","working_wednesday":"8:00-15:00","working_thursday":"8:00-15:00","working_friday":"8:00-15:00","working_saturday":"-","working_sunday":"-","phone":"67008001","inout":"0","region":"Jelgavas raj.","city":null,"area":"Jelgavas nov.","district":"Ozolnieku pag.","village":"Ozolnieki","street":"Skolas iela","house":"1B","zipcode":"3018","address":"Skolas iela 1B, Ozolnieki, Ozolnieku pag., Jelgavas nov., LV-3018","lat":"56.6919901064","long":"23.7877162215","magento_region_id":"404","magento_region_code":"LV-JL","magento_region_name":"Jelgavas novads","name_for_sorting":"Ozolnieki"},{"id":"375","postcode":"4724","label":"Palsmanes pasta noda\u013ca","working_monday":"7:30-11:00","working_tuesday":"7:30-13:00","working_wednesday":"7:30-13:00","working_thursday":"7:30-13:00","working_friday":"7:30-13:00","working_saturday":"-","working_sunday":"-","phone":"67008001; 27008001","inout":"0","region":"Valkas raj.","city":null,"area":"Smiltenes nov.","district":"Palsmanes pag.","village":"Palsmane","street":null,"house":"Aptieka","zipcode":"4724","address":"\"Aptieka\", Palsmane, Palsmanes pag., Smiltenes nov., LV-4724","lat":"57.3895362185","long":"26.1823203785","magento_region_id":"452","magento_region_code":"Smiltenes novads","magento_region_name":"Smiltenes novads","name_for_sorting":"Palsmane"},{"id":"189","postcode":"3466","label":"P\u0101vilostas pasta noda\u013ca","working_monday":"7:00-12:00","working_tuesday":"7:00-12:00","working_wednesday":"7:00-12:00","working_thursday":"7:00-12:00","working_friday":"7:00-12:00","working_saturday":"-","working_sunday":"-","phone":"67008001;27008001","inout":"0","region":"Liep\u0101jas raj.","city":"P\u0101vilosta","area":"Dienvidkurzemes nov.","district":null,"village":null,"street":"Tirgus iela","house":"1","zipcode":"3466","address":"Tirgus iela 1, P\u0101vilosta, Dienvidkurzemes nov., LV-3466","lat":"56.88884232","long":"21.1792668327","magento_region_id":"456","magento_region_code":"LV-TA","magento_region_name":"Talsu novads","name_for_sorting":"P\u0101vilosta"},{"id":"100","postcode":"2107","label":"Pi\u0146\u0137u pasta noda\u013ca","working_monday":"7:00-14:00","working_tuesday":"8:00-19:00","working_wednesday":"7:00-14:00","working_thursday":"8:00-19:00","working_friday":"8:00-14:00","working_saturday":"-","working_sunday":"-","phone":"67008001","inout":"0","region":"R\u012bgas raj.","city":null,"area":"M\u0101rupes nov.","district":"Bab\u012btes pag.","village":"Pi\u0146\u0137i","street":"J\u016brmalas iela","house":"14","zipcode":"2107","address":"J\u016brmalas iela 14, Pi\u0146\u0137i, Bab\u012btes pag., M\u0101rupes nov., LV-2107","lat":"56.9434290048","long":"23.9121552945","magento_region_id":"422","magento_region_code":"M\u0101rupes novads","magento_region_name":"M\u0101rupes novads","name_for_sorting":"Pi\u0146\u0137i"},{"id":"425","postcode":"5120","label":"P\u013cavi\u0146u pasta noda\u013ca","working_monday":"08:00 -16:00","working_tuesday":"08:00 -16:00","working_wednesday":"08:00 -15:00","working_thursday":"08:00 -16:00","working_friday":"08:00 -15:00","working_saturday":"-","working_sunday":"-","phone":"67008001;","inout":"0","region":"Aizkraukles raj.","city":"P\u013cavi\u0146as","area":"Aizkraukles nov.","district":null,"village":null,"street":"Stacijas iela","house":"2","zipcode":"5120","address":"Stacijas iela 2, P\u013cavi\u0146as, Aizkraukles nov., LV-5120","lat":"56.6169487712","long":"25.7181452709","magento_region_id":"367","magento_region_code":"LV-AI","magento_region_name":"Aizkraukles novads","name_for_sorting":"P\u013cavi\u0146as"},{"id":"458","postcode":"5301","label":"Prei\u013cu 1.pasta noda\u013ca","working_monday":"08:00-17:00","working_tuesday":"08:00-17:00","working_wednesday":"08:00-17:00","working_thursday":"08:00-17:00","working_friday":"08:00-17:00","working_saturday":"-","working_sunday":"-","phone":"67008001; 27008001","inout":"1","region":"Prei\u013cu raj.","city":"Prei\u013ci","area":"Prei\u013cu nov.","district":null,"village":null,"street":"Rai\u0146a bulv\u0101ris","house":"21","zipcode":"5301","address":"Rai\u0146a bulv\u0101ris 21, Prei\u013ci, Prei\u013cu nov., LV-5301","lat":"56.2892901375","long":"26.7270506925","magento_region_id":"429","magento_region_code":"LV-PR","magento_region_name":"Prei\u013cu novads","name_for_sorting":"Prei\u013ci"},{"id":"186","postcode":"3434","label":"Priekules pasta noda\u013ca","working_monday":"7:00-14:00","working_tuesday":"7:00-14:00","working_wednesday":"7:00-14:00","working_thursday":"7:00-14:00","working_friday":"7:00-14:00","working_saturday":"-","working_sunday":"-","phone":"67008001;27008001","inout":"0","region":"Liep\u0101jas raj.","city":"Priekule","area":"Dienvidkurzemes nov.","district":null,"village":null,"street":"Aizputes iela","house":"14A","zipcode":"3434","address":"Aizputes iela 14A, Priekule, Dienvidkurzemes nov., LV-3434","lat":"56.4467158932","long":"21.5849004902","magento_region_id":"456","magento_region_code":"LV-TA","magento_region_name":"Talsu novads","name_for_sorting":"Priekule"},{"id":"272","postcode":"4126","label":"Prieku\u013cu pasta noda\u013ca","working_monday":"8:00-12:30; 13:00-16:00","working_tuesday":"8:00-12:30; 13:00-16:00","working_wednesday":"8:00-12:30; 13:00-16:00","working_thursday":"8:00-12:30; 13:00-16:00","working_friday":"8:00-12:30; 13:00-16:00","working_saturday":"-","working_sunday":"-","phone":"67008001; 27008001","inout":"0","region":"C\u0113su raj.","city":null,"area":"C\u0113su nov.","district":"Prieku\u013cu pag.","village":"Prieku\u013ci","street":"D\u0101rza iela","house":"6","zipcode":"4126","address":"D\u0101rza iela 6, Prieku\u013ci, Prieku\u013cu pag., C\u0113su nov., LV-4126","lat":"57.3105932774","long":"25.3602073952","magento_region_id":"387","magento_region_code":"LV-CE","magento_region_name":"C\u0113su novads","name_for_sorting":"Prieku\u013ci"},{"id":"618","postcode":"2144","label":"Raganas pasta noda\u013ca","working_monday":"7:00-15:00","working_tuesday":"7:00-15:00","working_wednesday":"7:00-15:00","working_thursday":"7:00-15:00","working_friday":"7:00-15:00","working_saturday":"-","working_sunday":"-","phone":" 67008001","inout":"0","region":"R\u012bgas raj.","city":null,"area":"Siguldas nov.","district":"Krimuldas pag.","village":"Ragana","street":"Tirgus iela","house":"3","zipcode":"2144","address":"Tirgus iela 3, Ragana, Krimuldas pag., Siguldas nov., LV-2144","lat":"57.1802484043","long":"24.7129590063","magento_region_id":"449","magento_region_code":"Siguldas novads","magento_region_name":"Siguldas novads","name_for_sorting":"Ragana"},{"id":"83","postcode":"4131","label":"Raunas pasta noda\u013ca","working_monday":"8:30-11:00;12:00-16:00","working_tuesday":"8:30-11:00;12:00-16:00","working_wednesday":"8:30-11:00;12:00-16:00","working_thursday":"8:30-11:00;12:00-16:00","working_friday":"8:30-11:00;12:00-16:00","working_saturday":"-","working_sunday":"-","phone":"67008001; 27008001","inout":"0","region":"Valkas raj.","city":null,"area":"Smiltenes nov.","district":"Raunas pag.","village":"Rauna","street":"C\u0113su iela","house":"6","zipcode":"4131","address":"C\u0113su iela 6, Rauna, Raunas pag., Smiltenes nov., LV-4131","lat":"57.3307319909","long":"25.6062436659","magento_region_id":"452","magento_region_code":"Smiltenes novads","magento_region_name":"Smiltenes novads","name_for_sorting":"Rauna"},{"id":"343","postcode":"4601","label":"R\u0113zeknes 1.pasta noda\u013ca","working_monday":"8:00-18:00","working_tuesday":"8:00-18:00","working_wednesday":"8:00-18:00","working_thursday":"8:00-18:00","working_friday":"8:00-18:00","working_saturday":"-","working_sunday":"-","phone":"67008001; 27008001","inout":"1","region":null,"city":"R\u0113zekne","area":null,"district":null,"village":null,"street":"Atbr\u012bvo\u0161anas aleja","house":"81 k-5","zipcode":"4601","address":"Atbr\u012bvo\u0161anas aleja 81 k-5, R\u0113zekne, LV-4601","lat":"56.5050260319","long":"27.3295721095","magento_region_id":"361","magento_region_code":"LV-REZ","magento_region_name":"R\u0113zekne","name_for_sorting":"R\u0113zekne"},{"id":"344","postcode":"4604","label":"R\u0113zeknes 4.pasta noda\u013ca","working_monday":"08:00-18:00","working_tuesday":"08:00-18:00","working_wednesday":"08:00-18:00","working_thursday":"08:00-18:00","working_friday":"08:00-18:00","working_saturday":"-","working_sunday":"-","phone":"67008001; 27008001","inout":"1","region":null,"city":"R\u0113zekne","area":null,"district":null,"village":null,"street":"Atbr\u012bvo\u0161anas aleja","house":"155 k-1","zipcode":"4604","address":"Atbr\u012bvo\u0161anas aleja 155 k-1, R\u0113zekne, LV-4604","lat":"56.5280828095","long":"27.3400553437","magento_region_id":"361","magento_region_code":"LV-REZ","magento_region_name":"R\u0113zekne","name_for_sorting":"R\u0113zekne"},{"id":"21","postcode":"1055","label":"R\u012bgas 55.pasta noda\u013ca","working_monday":"8:00-19:00","working_tuesday":"8:00-19:00","working_wednesday":"8:00-19:00","working_thursday":"8:00-19:00","working_friday":"8:00-19:00","working_saturday":"-","working_sunday":"-","phone":"67008001","inout":"1","region":null,"city":"R\u012bga","area":null,"district":null,"village":null,"street":"Cementa iela","house":"12","zipcode":"1055","address":"Cementa iela 12, R\u012bga, LV-1055","lat":"56.9690877694","long":"24.061603602","magento_region_id":"362","magento_region_code":"LV-RIX","magento_region_name":"R\u012bga","name_for_sorting":"R\u012bga"},{"id":"47","postcode":"1021","label":"R\u012bgas 21.pasta noda\u013ca","working_monday":"8:00-19:00","working_tuesday":"8:00-19:00","working_wednesday":"8:00-19:00","working_thursday":"8:00-19:00","working_friday":"8:00-19:00","working_saturday":"-","working_sunday":"-","phone":"67008001","inout":"1","region":null,"city":"R\u012bga","area":null,"district":null,"village":null,"street":"Ulbrokas iela","house":"7","zipcode":"1021","address":"Ulbrokas iela 7, R\u012bga, LV-1021","lat":"56.9435737873","long":"24.2158964274","magento_region_id":"362","magento_region_code":"LV-RIX","magento_region_name":"R\u012bga","name_for_sorting":"R\u012bga"},{"id":"49","postcode":"1024","label":"R\u012bgas 24.pasta noda\u013ca","working_monday":"8:00-19:00","working_tuesday":"8:00-19:00","working_wednesday":"8:00-19:00","working_thursday":"8:00-19:00","working_friday":"8:00-19:00","working_saturday":"-","working_sunday":"-","phone":"67008001","inout":"1","region":null,"city":"R\u012bga","area":null,"district":null,"village":null,"street":"Br\u012bv\u012bbas gatve","house":"430A","zipcode":"1024","address":"Br\u012bv\u012bbas gatve 430A, R\u012bga, LV-1024","lat":"56.9887052169","long":"24.2385683029","magento_region_id":"362","magento_region_code":"LV-RIX","magento_region_name":"R\u012bga","name_for_sorting":"R\u012bga"},{"id":"51","postcode":"1029","label":"R\u012bgas 29.pasta noda\u013ca","working_monday":"08:00-19:00","working_tuesday":"08:00-19:00","working_wednesday":"08:00-19:00","working_thursday":"08:00-19:00","working_friday":"08:00-19:00","working_saturday":"-","working_sunday":"-","phone":"67008001","inout":"1","region":null,"city":"R\u012bga","area":null,"district":null,"village":null,"street":"Ruses iela","house":"9","zipcode":"1029","address":"Ruses iela 9, R\u012bga, LV-1029","lat":"56.9475009828","long":"24.0054567564","magento_region_id":"362","magento_region_code":"LV-RIX","magento_region_name":"R\u012bga","name_for_sorting":"R\u012bga"},{"id":"52","postcode":"1035","label":"R\u012bgas 35.pasta noda\u013ca","working_monday":"8:00-19:00 ","working_tuesday":"8:00-19:00 ","working_wednesday":"8:00-19:00 ","working_thursday":"8:00-19:00 ","working_friday":"8:00-19:00 ","working_saturday":"-","working_sunday":"-","phone":"67008001","inout":"1","region":null,"city":"R\u012bga","area":null,"district":null,"village":null,"street":"Sesku iela","house":"2A","zipcode":"1035","address":"Sesku iela 2A, R\u012bga, LV-1035","lat":"56.9441546688","long":"24.1723825976","magento_region_id":"362","magento_region_code":"LV-RIX","magento_region_name":"R\u012bga","name_for_sorting":"R\u012bga"},{"id":"80","postcode":"1004","label":"R\u012bgas 4.pasta noda\u013ca","working_monday":"8:00-19:00","working_tuesday":"8:00-19:00","working_wednesday":"8:00-19:00","working_thursday":"8:00-19:00","working_friday":"8:00-19:00","working_saturday":"-","working_sunday":"-","phone":"67008001","inout":"1","region":null,"city":"R\u012bga","area":null,"district":null,"village":null,"street":"Satiksmes iela","house":"2","zipcode":"1004","address":"Satiksmes iela 2, R\u012bga, LV-1004","lat":"56.9270374869","long":"24.0917277427","magento_region_id":"362","magento_region_code":"LV-RIX","magento_region_name":"R\u012bga","name_for_sorting":"R\u012bga"},{"id":"84","postcode":"1039","label":"R\u012bgas 39.pasta noda\u013ca","working_monday":"8:00-19:00","working_tuesday":"8:00-19:00","working_wednesday":"8:00-19:00","working_thursday":"8:00-19:00","working_friday":"8:00-19:00","working_saturday":"-","working_sunday":"-","phone":"67008001","inout":"1","region":null,"city":"R\u012bga","area":null,"district":null,"village":null,"street":"Br\u012bv\u012bbas gatve","house":"211, pasta noda\u013ca","zipcode":"1039","address":"Br\u012bv\u012bbas gatve 211, pasta noda\u013ca, R\u012bga, LV-1039","lat":"56.9748797062","long":"24.1711247479","magento_region_id":"362","magento_region_code":"LV-RIX","magento_region_name":"R\u012bga","name_for_sorting":"R\u012bga"},{"id":"87","postcode":"1057","label":"R\u012bgas 57.pasta noda\u013ca","working_monday":"8:00-20:00","working_tuesday":"8:00-20:00","working_wednesday":"8:00-20:00","working_thursday":"8:00-20:00","working_friday":"8:00-20:00","working_saturday":"9:00-16:00","working_sunday":"-","phone":"67008001","inout":"1","region":null,"city":"R\u012bga","area":null,"district":null,"village":null,"street":"Pr\u016b\u0161u iela","house":"2","zipcode":"1057","address":"Pr\u016b\u0161u iela 2, R\u012bga, LV-1057","lat":"56.9148597132","long":"24.1776178432","magento_region_id":"362","magento_region_code":"LV-RIX","magento_region_name":"R\u012bga","name_for_sorting":"R\u012bga"},{"id":"88","postcode":"1058","label":"R\u012bgas 58.pasta noda\u013ca","working_monday":"8:00-19:00","working_tuesday":"8:00-19:00","working_wednesday":"8:00-19:00","working_thursday":"8:00-19:00","working_friday":"8:00-19:00","working_saturday":"-","working_sunday":"-","phone":"67008001","inout":"1","region":null,"city":"R\u012bga","area":null,"district":null,"village":null,"street":"Di\u017eozolu iela","house":"21","zipcode":"1058","address":"Di\u017eozolu iela 21, R\u012bga, LV-1058","lat":"56.9030910877","long":"24.0974906798","magento_region_id":"362","magento_region_code":"LV-RIX","magento_region_name":"R\u012bga","name_for_sorting":"R\u012bga"},{"id":"91","postcode":"1079","label":"R\u012bgas 79.pasta noda\u013ca","working_monday":"9:00-19:00","working_tuesday":"9:00-19:00","working_wednesday":"9:00-19:00","working_thursday":"9:00-19:00","working_friday":"9:00-19:00","working_saturday":"-","working_sunday":"-","phone":"67008001","inout":"1","region":null,"city":"R\u012bga","area":null,"district":null,"village":null,"street":"Gai\u013cezera iela","house":"8","zipcode":"1079","address":"Gai\u013cezera iela 8, R\u012bga, LV-1079","lat":"56.9680751645","long":"24.2367476462","magento_region_id":"362","magento_region_code":"LV-RIX","magento_region_name":"R\u012bga","name_for_sorting":"R\u012bga"},{"id":"92","postcode":"1082","label":"R\u012bgas 82.pasta noda\u013ca","working_monday":"8:00-19:00","working_tuesday":"8:00-19:00","working_wednesday":"8:00-19:00","working_thursday":"8:00-19:00","working_friday":"8:00-19:00","working_saturday":"-","working_sunday":"-","phone":"67008001","inout":"1","region":null,"city":"R\u012bga","area":null,"district":null,"village":null,"street":"Augusta Deglava iela","house":"120","zipcode":"1082","address":"Augusta Deglava iela 120, R\u012bga, LV-1082","lat":"56.9471690522","long":"24.1969503714","magento_region_id":"362","magento_region_code":"LV-RIX","magento_region_name":"R\u012bga","name_for_sorting":"R\u012bga"},{"id":"93","postcode":"1083","label":"R\u012bgas 83.pasta noda\u013ca","working_monday":"8:00-19:00","working_tuesday":"8:00-19:00","working_wednesday":"8:00-19:00","working_thursday":"8:00-19:00","working_friday":"8:00-19:00","working_saturday":"-","working_sunday":"-","phone":"67008001","inout":"1","region":null,"city":"R\u012bga","area":null,"district":null,"village":null,"street":"Dzirciema iela","house":"1A","zipcode":"1083","address":"Dzirciema iela 1A, R\u012bga, LV-1083","lat":"56.9496937654","long":"24.0538850542","magento_region_id":"362","magento_region_code":"LV-RIX","magento_region_name":"R\u012bga","name_for_sorting":"R\u012bga"},{"id":"107","postcode":"1069","label":"R\u012bgas 69.pasta noda\u013ca","working_monday":"8:00-19:00","working_tuesday":"8:00-19:00","working_wednesday":"8:00-19:00","working_thursday":"8:00-19:00","working_friday":"8:00-19:00","working_saturday":"-","working_sunday":"-","phone":"67008001","inout":"1","region":null,"city":"R\u012bga","area":null,"district":null,"village":null,"street":"Slokas iela","house":"146","zipcode":"1069","address":"Slokas iela 146, R\u012bga, LV-1069","lat":"56.9631279898","long":"24.0027175069","magento_region_id":"362","magento_region_code":"LV-RIX","magento_region_name":"R\u012bga","name_for_sorting":"R\u012bga"},{"id":"547","postcode":"1001","label":"R\u012bgas 1.pasta noda\u013ca","working_monday":"8:00-19:00","working_tuesday":"8:00-19:00","working_wednesday":"8:00-19:00","working_thursday":"8:00-19:00","working_friday":"8:00-19:00","working_saturday":"-","working_sunday":"-","phone":"67008001","inout":"1","region":null,"city":"R\u012bga","area":null,"district":null,"village":null,"street":"Miera iela","house":"44","zipcode":"1001","address":"Miera iela 44, R\u012bga, LV-1001","lat":"56.9647933725","long":"24.1332019624","magento_region_id":"362","magento_region_code":"LV-RIX","magento_region_name":"R\u012bga","name_for_sorting":"R\u012bga"},{"id":"548","postcode":"1002","label":"R\u012bgas 2.pasta noda\u013ca","working_monday":"8:00-19:00","working_tuesday":"8:00-19:00","working_wednesday":"8:00-19:00 ","working_thursday":"8:00-19:00 ","working_friday":"8:00-19:00 ","working_saturday":"-","working_sunday":"-","phone":"67008001","inout":"1","region":null,"city":"R\u012bga","area":null,"district":null,"village":null,"street":"M\u0101rupes iela","house":"6","zipcode":"1002","address":"M\u0101rupes iela 6, R\u012bga, LV-1002","lat":"56.9344684292","long":"24.0714257685","magento_region_id":"362","magento_region_code":"LV-RIX","magento_region_name":"R\u012bga","name_for_sorting":"R\u012bga"},{"id":"549","postcode":"1005","label":"R\u012bgas 5.pasta noda\u013ca","working_monday":"8:00-19:00","working_tuesday":"8:00-19:00","working_wednesday":"8:00-19:00","working_thursday":"8:00-19:00","working_friday":"8:00-19:00","working_saturday":"-","working_sunday":"-","phone":"67008001","inout":"1","region":null,"city":"R\u012bga","area":null,"district":null,"village":null,"street":"Tilta iela","house":"11 k-3","zipcode":"1005","address":"Tilta iela 11 k-3, R\u012bga, LV-1005","lat":"56.996091168","long":"24.1291844491","magento_region_id":"362","magento_region_code":"LV-RIX","magento_region_name":"R\u012bga","name_for_sorting":"R\u012bga"},{"id":"576","postcode":"1015","label":"R\u012bgas 15.pasta noda\u013ca","working_monday":"8:00-19:00","working_tuesday":"8:00-19:00","working_wednesday":"8:00-19:00","working_thursday":"8:00-19:00 ","working_friday":"8:00-19:00","working_saturday":"-","working_sunday":"-","phone":"67008001","inout":"1","region":null,"city":"R\u012bga","area":null,"district":null,"village":null,"street":"Augusta Dombrovska iela","house":"34","zipcode":"1015","address":"Augusta Dombrovska iela 34, R\u012bga, LV-1015","lat":"57.0325711387","long":"24.1087333363","magento_region_id":"362","magento_region_code":"LV-RIX","magento_region_name":"R\u012bga","name_for_sorting":"R\u012bga"},{"id":"577","postcode":"1016","label":"R\u012bgas 16.pasta noda\u013ca","working_monday":"8:00-19:00","working_tuesday":"8:00-19:00","working_wednesday":"8:00-19:00","working_thursday":"8:00-19:00","working_friday":"8:00-19:00","working_saturday":"-","working_sunday":"-","phone":"67008001","inout":"1","region":null,"city":"R\u012bga","area":null,"district":null,"village":null,"street":"St\u016brma\u0146u iela","house":"25","zipcode":"1016","address":"St\u016brma\u0146u iela 25, R\u012bga, LV-1016","lat":"57.0333978061","long":"24.0502619188","magento_region_id":"362","magento_region_code":"LV-RIX","magento_region_name":"R\u012bga","name_for_sorting":"R\u012bga"},{"id":"584","postcode":"1084","label":"R\u012bgas 84.pasta noda\u013ca","working_monday":"8:00-19:00","working_tuesday":"8:00-19:00","working_wednesday":"8:00-19:00","working_thursday":"8:00-19:00","working_friday":"8:00-19:00","working_saturday":"-","working_sunday":"-","phone":"67008001","inout":"1","region":null,"city":"R\u012bga","area":null,"district":null,"village":null,"street":"Vaidavas iela","house":"1A","zipcode":"1084","address":"Vaidavas iela 1A, R\u012bga, LV-1084","lat":"56.9641348121","long":"24.1771813201","magento_region_id":"362","magento_region_code":"LV-RIX","magento_region_name":"R\u012bga","name_for_sorting":"R\u012bga"},{"id":"601","postcode":"1009","label":"R\u012bgas 9.pasta noda\u013ca","working_monday":"8:00-19:00","working_tuesday":"8:00-19:00","working_wednesday":"8:00-19:00","working_thursday":"8:00-19:00","working_friday":"8:00-19:00","working_saturday":"-","working_sunday":"-","phone":"67008001","inout":"1","region":null,"city":"R\u012bga","area":null,"district":null,"village":null,"street":"P\u0113rnavas iela","house":"43","zipcode":"1009","address":"P\u0113rnavas iela 43, R\u012bga, LV-1009","lat":"56.9547476324","long":"24.1536556085","magento_region_id":"362","magento_region_code":"LV-RIX","magento_region_name":"R\u012bga","name_for_sorting":"R\u012bga"},{"id":"602","postcode":"1010","label":"R\u012bgas 10.pasta noda\u013ca","working_monday":"8:00-19:00","working_tuesday":"8:00-19:00","working_wednesday":"8:00-19:00","working_thursday":"8:00-19:00","working_friday":"8:00-19:00","working_saturday":"-","working_sunday":"-","phone":"67008001","inout":"1","region":null,"city":"R\u012bga","area":null,"district":null,"village":null,"street":"Elizabetes iela","house":"41\/43","zipcode":"1010","address":"Elizabetes iela 41\/43, R\u012bga, LV-1010","lat":"56.9573472288","long":"24.1123881421","magento_region_id":"362","magento_region_code":"LV-RIX","magento_region_name":"R\u012bga","name_for_sorting":"R\u012bga"},{"id":"603","postcode":"1011","label":"R\u012bgas 11.pasta noda\u013ca","working_monday":"8:00-19:00","working_tuesday":"8:00-19:00","working_wednesday":"8:00-19:00","working_thursday":"8:00-19:00","working_friday":"8:00-19:00","working_saturday":"-","working_sunday":"-","phone":"67008001","inout":"1","region":null,"city":"R\u012bga","area":null,"district":null,"village":null,"street":"Marijas iela","house":"20","zipcode":"1011","address":"Marijas iela 20, R\u012bga, LV-1011","lat":"56.9508125429","long":"24.1263029138","magento_region_id":"362","magento_region_code":"LV-RIX","magento_region_name":"R\u012bga","name_for_sorting":"R\u012bga"},{"id":"619","postcode":"1003","label":"R\u012bgas 3.pasta noda\u013ca","working_monday":"10:00-21:00","working_tuesday":"10:00-21:00","working_wednesday":"10:00-21:00","working_thursday":"10:00-21:00","working_friday":"10:00-21:00","working_saturday":"10:00-19:00","working_sunday":"10:00-17:00","phone":"67008001","inout":"1","region":null,"city":"R\u012bga","area":null,"district":null,"village":null,"street":"Krasta iela","house":"46","zipcode":"1003","address":"Krasta iela 46, R\u012bga, LV-1003","lat":"56.9347427441","long":"24.1428078347","magento_region_id":"362","magento_region_code":"LV-RIX","magento_region_name":"R\u012bga","name_for_sorting":"R\u012bga"},{"id":"193","postcode":"3264","label":"Rojas pasta noda\u013ca","working_monday":"7:00 - 12:00","working_tuesday":"7:00 - 12:00","working_wednesday":"7:00 - 12:00","working_thursday":"7:00 - 12:00","working_friday":"7:00 - 12:00","working_saturday":"-","working_sunday":"-","phone":"67008001;27008001","inout":"0","region":"Talsu raj.","city":null,"area":"Talsu nov.","district":"Rojas pag.","village":"Roja","street":"Zvejnieku iela","house":"3","zipcode":"3264","address":"Zvejnieku iela 3, Roja, Rojas pag., Talsu nov., LV-3264","lat":"57.5019414453","long":"22.8096609178","magento_region_id":"456","magento_region_code":"LV-TA","magento_region_name":"Talsu novads","name_for_sorting":"Roja"},{"id":"250","postcode":"2135","label":"Ropa\u017eu pasta noda\u013ca","working_monday":"7:00-14:00","working_tuesday":"7:00-14:00","working_wednesday":"7:00-14:00","working_thursday":"7:00-18:00","working_friday":"7:00-14:00","working_saturday":"-","working_sunday":"-","phone":"67008001","inout":"0","region":"R\u012bgas raj.","city":null,"area":"Ropa\u017eu nov.","district":"Ropa\u017eu pag.","village":"Ropa\u017ei","street":"R\u012bgas iela","house":"13","zipcode":"2135","address":"R\u012bgas iela 13, Ropa\u017ei, Ropa\u017eu pag., Ropa\u017eu nov., LV-2135","lat":"56.972807235","long":"24.6344006303","magento_region_id":"438","magento_region_code":"Ropa\u017eu novads","magento_region_name":"Ropa\u017eu novads","name_for_sorting":"Ropa\u017ei"},{"id":"330","postcode":"4570","label":"Rug\u0101ju pasta noda\u013ca","working_monday":"8:00-14:30","working_tuesday":"8:00-14:30","working_wednesday":"8:00-14:30","working_thursday":"8:00-14:30","working_friday":"8:00-14:30","working_saturday":"-","working_sunday":"-","phone":"67008001; 27008001","inout":"0","region":"Balvu raj.","city":null,"area":"Balvu nov.","district":"Rug\u0101ju pag.","village":"Rug\u0101ji","street":"Kurmenes iela","house":"36","zipcode":"4570","address":"Kurmenes iela 36, Rug\u0101ji, Rug\u0101ju pag., Balvu nov., LV-4570","lat":"57.0015123832","long":"27.1298151898","magento_region_id":"379","magento_region_code":"LV-BL","magento_region_name":"Balvu novads","name_for_sorting":"Rug\u0101ji"},{"id":"292","postcode":"4240","label":"R\u016bjienas pasta noda\u013ca","working_monday":"8:00-18:00","working_tuesday":"8:00-18:00","working_wednesday":"8:00-18:00","working_thursday":"8:00-18:00","working_friday":"8:00-18:00","working_saturday":"9:00 - 13:00","working_sunday":"-","phone":"67008001; 27008001","inout":"0","region":"Valmieras raj.","city":"R\u016bjiena","area":"Valmieras nov.","district":null,"village":null,"street":"Br\u012bv\u012bbas iela","house":"8","zipcode":"4240","address":"Br\u012bv\u012bbas iela 8, R\u016bjiena, Valmieras nov., LV-4240","lat":"57.8974055244","long":"25.3246075234","magento_region_id":"461","magento_region_code":"LV-VM","magento_region_name":"Valmieras novads","name_for_sorting":"R\u016bjiena"},{"id":"529","postcode":"3294","label":"Sabiles pasta noda\u013ca","working_monday":"7:00 - 12:00","working_tuesday":"7:00 - 12:00","working_wednesday":"7:00 - 12:00","working_thursday":"7:00 - 12:00","working_friday":"7:00 - 12:00","working_saturday":"-","working_sunday":"-","phone":"67008001;27008001","inout":"0","region":"Talsu raj.","city":"Sabile","area":"Talsu nov.","district":null,"village":null,"street":"R\u012bgas iela","house":"12","zipcode":"3294","address":"R\u012bgas iela 12, Sabile, Talsu nov., LV-3294","lat":"57.0443565874","long":"22.5743740438","magento_region_id":"456","magento_region_code":"LV-TA","magento_region_name":"Talsu novads","name_for_sorting":"Sabile"},{"id":"536","postcode":"4033","label":"Salacgr\u012bvas pasta noda\u013ca","working_monday":"8:00 -12:00;12:30- 16:00","working_tuesday":"8:00 -12:00;12:30- 16:00","working_wednesday":"8:00 -12:00;12:30- 16:00","working_thursday":"8:00 -12:00;12:30- 16:00","working_friday":"8:00 -12:00;12:30- 16:00","working_saturday":"-","working_sunday":"-","phone":"67008001","inout":"0","region":"Limba\u017eu raj.","city":"Salacgr\u012bva","area":"Limba\u017eu nov.","district":null,"village":null,"street":"R\u012bgas iela","house":"2","zipcode":"4033","address":"R\u012bgas iela 2, Salacgr\u012bva, Limba\u017eu nov., LV-4033","lat":"57.7543823087","long":"24.356022872","magento_region_id":"414","magento_region_code":"LV-LM","magento_region_name":"Limba\u017eu novads","name_for_sorting":"Salacgr\u012bva"},{"id":"103","postcode":"2121","label":"Salaspils pasta noda\u013ca","working_monday":"8:00-19:00","working_tuesday":"8:00-19:00","working_wednesday":"8:00-19:00","working_thursday":"8:00-19:00","working_friday":"8:00-19:00","working_saturday":"-","working_sunday":"-","phone":"67008001","inout":"1","region":"R\u012bgas raj.","city":"Salaspils","area":"Salaspils nov.","district":null,"village":null,"street":"Skolas iela","house":"5","zipcode":"2121","address":"Skolas iela 5, Salaspils, Salaspils nov., LV-2121","lat":"56.8535086646","long":"24.3349757179","magento_region_id":"446","magento_region_code":"Salaspils novads","magento_region_name":"Salaspils novads","name_for_sorting":"Salaspils"},{"id":"34","postcode":"3801","label":"Saldus 1.pasta noda\u013ca","working_monday":"8:00-18:00","working_tuesday":"8:00-18:00","working_wednesday":"8:00-18:00","working_thursday":"8:00-18:00","working_friday":"8:00-18:00","working_saturday":"9:00 - 12:00","working_sunday":"-","phone":"67008001;27008001","inout":"1","region":"Saldus raj.","city":"Saldus","area":"Saldus nov.","district":null,"village":null,"street":"Kuld\u012bgas iela","house":"4","zipcode":"3801","address":"Kuld\u012bgas iela 4, Saldus, Saldus nov., LV-3801","lat":"56.6672950027","long":"22.4924685069","magento_region_id":"447","magento_region_code":"LV-SA","magento_region_name":"Saldus novads","name_for_sorting":"Saldus"},{"id":"110","postcode":"2160","label":"Saulkrastu pasta noda\u013ca","working_monday":"8:00-15:00","working_tuesday":"8:00-15:00","working_wednesday":"8:00-15:00","working_thursday":"8:00-18:00","working_friday":"8:00-15:00","working_saturday":"-","working_sunday":"-","phone":"67008001","inout":"0","region":"R\u012bgas raj.","city":"Saulkrasti","area":"Saulkrastu nov.","district":null,"village":null,"street":"Alfr\u0113da Kalni\u0146a iela","house":"24A","zipcode":"2160","address":"Alfr\u0113da Kalni\u0146a iela 24A, Saulkrasti, Saulkrastu nov., LV-2160","lat":"57.2692300935","long":"24.4263250953","magento_region_id":"448","magento_region_code":"Saulkrastu novads","magento_region_name":"Saulkrastu novads","name_for_sorting":"Saulkrasti"},{"id":"132","postcode":"2150","label":"Siguldas pasta noda\u013ca","working_monday":"8:00-18:00","working_tuesday":"8:00-18:00","working_wednesday":"8:00-19:00","working_thursday":"8:00-18:00","working_friday":"8:00-18:00","working_saturday":"-","working_sunday":"-","phone":"67008001","inout":"1","region":"R\u012bgas raj.","city":"Sigulda","area":"Siguldas nov.","district":null,"village":null,"street":"Pils iela","house":"2","zipcode":"2150","address":"Pils iela 2, Sigulda, Siguldas nov., LV-2150","lat":"57.1541397106","long":"24.8532391668","magento_region_id":"449","magento_region_code":"Siguldas novads","magento_region_name":"Siguldas novads","name_for_sorting":"Sigulda"},{"id":"442","postcode":"5125","label":"Skr\u012bveru pasta noda\u013ca","working_monday":"7:00-15:00","working_tuesday":"7:00-15:00","working_wednesday":"7:00-15:00","working_thursday":"7:00-14:00","working_friday":"7:00-14:00","working_saturday":"-","working_sunday":"-","phone":"67008001","inout":"0","region":"Aizkraukles raj.","city":null,"area":"Aizkraukles nov.","district":"Skr\u012bveru pag.","village":"Skr\u012bveri","street":"Stacijas laukums","house":"3","zipcode":"5125","address":"Stacijas laukums 3, Skr\u012bveri, Skr\u012bveru pag., Aizkraukles nov., LV-5125","lat":"56.6471606697","long":"25.121594893","magento_region_id":"367","magento_region_code":"LV-AI","magento_region_name":"Aizkraukles novads","name_for_sorting":"Skr\u012bveri"},{"id":"61","postcode":"3326","label":"Skrundas pasta noda\u013ca","working_monday":"8:00 - 18:00","working_tuesday":"8:00 - 18:00","working_wednesday":"8:00 - 18:00","working_thursday":"8:00 - 18:00","working_friday":"8:00 - 18:00","working_saturday":"8:00 - 12:00","working_sunday":"-","phone":"67008001;27008001","inout":"0","region":"Kuld\u012bgas raj.","city":"Skrunda","area":"Kuld\u012bgas nov.","district":null,"village":null,"street":"Ventas iela","house":"16","zipcode":"3326","address":"Ventas iela 16, Skrunda, Kuld\u012bgas nov., LV-3326","lat":"56.6740400216","long":"22.0135727723","magento_region_id":"411","magento_region_code":"LV-KU","magento_region_name":"Kuld\u012bgas novads","name_for_sorting":"Skrunda"},{"id":"378","postcode":"4729","label":"Smiltenes pasta noda\u013ca","working_monday":"8:00 - 18:00","working_tuesday":"8:00 - 18:00","working_wednesday":"8:00 - 18:00","working_thursday":"8:00 - 18:00","working_friday":"8:00 - 18:00","working_saturday":"9:00-13:00","working_sunday":"-","phone":"67008001; 27008001","inout":"1","region":"Valkas raj.","city":"Smiltene","area":"Smiltenes nov.","district":null,"village":null,"street":"D\u0101rza iela","house":"1","zipcode":"4729","address":"D\u0101rza iela 1, Smiltene, Smiltenes nov., LV-4729","lat":"57.4241850318","long":"25.9073228713","magento_region_id":"452","magento_region_code":"Smiltenes novads","magento_region_name":"Smiltenes novads","name_for_sorting":"Smiltene"},{"id":"561","postcode":"4043","label":"Staiceles pasta noda\u013ca","working_monday":"7:30 -15:30","working_tuesday":"7:30 -15:30","working_wednesday":"7:30 -15:30","working_thursday":"7:30 -15:30","working_friday":"7:30 -15:30","working_saturday":"-","working_sunday":"-","phone":"67008001; 27008001","inout":"0","region":"Limba\u017eu raj.","city":"Staicele","area":"Limba\u017eu nov.","district":null,"village":null,"street":"Liel\u0101 iela","house":"7","zipcode":"4043","address":"Liel\u0101 iela 7, Staicele, Limba\u017eu nov., LV-4043","lat":"57.83626225","long":"24.7465144128","magento_region_id":"414","magento_region_code":"LV-LM","magento_region_name":"Limba\u017eu novads","name_for_sorting":"Staicele"},{"id":"562","postcode":"4152","label":"Straupes pasta noda\u013ca","working_monday":"7:30-11:00; 11:30 -13:30","working_tuesday":"7:30-11:00; 11:30 -13:30","working_wednesday":"7:30-11:00; 11:30 -13:30","working_thursday":"7:30-11:00; 11:30 -13:30","working_friday":"7:30-11:00; 11:30 -13:30","working_saturday":"-","working_sunday":"-","phone":"67008001; 27008001","inout":"0","region":"C\u0113su raj.","city":null,"area":"C\u0113su nov.","district":"Straupes pag.","village":"Straupe","street":"Braslas iela","house":"1","zipcode":"4152","address":"Braslas iela 1, Straupe, Straupes pag., C\u0113su nov., LV-4152","lat":"57.3554396448","long":"24.9510785009","magento_region_id":"387","magento_region_code":"LV-CE","magento_region_name":"C\u0113su novads","name_for_sorting":"Straupe"},{"id":"405","postcode":"4730","label":"Stren\u010du pasta noda\u013ca","working_monday":"9:00-11:30   12:30-15:00","working_tuesday":"9:00-11:30   12:30-18:00","working_wednesday":"9:00-11:30   12:30-15:00","working_thursday":"9:00-11:30   12:30-15:00","working_friday":"9:00-11:30   12:30-15:00","working_saturday":"-","working_sunday":"-","phone":"67008001; 27008001","inout":"0","region":"Valmieras raj.","city":"Stren\u010di","area":"Valmieras nov.","district":null,"village":null,"street":"Pulkve\u017ea Zemit\u0101na iela","house":"5","zipcode":"4730","address":"Pulkve\u017ea Zemit\u0101na iela 5, Stren\u010di, Valmieras nov., LV-4730","lat":"57.6282338884","long":"25.6842187423","magento_region_id":"461","magento_region_code":"LV-VM","magento_region_name":"Valmieras novads","name_for_sorting":"Stren\u010di"},{"id":"171","postcode":"3201","label":"Talsu 1.pasta noda\u013ca","working_monday":"7:30 - 18:00","working_tuesday":"7:30 - 18:00","working_wednesday":"7:30 - 18:00","working_thursday":"7:30 - 18:00","working_friday":"7:30 - 18:00","working_saturday":"9:00 - 12:00","working_sunday":"-","phone":"67008001;27008001","inout":"1","region":"Talsu raj.","city":"Talsi","area":"Talsu nov.","district":null,"village":null,"street":"Liel\u0101 iela","house":"20","zipcode":"3201","address":"Liel\u0101 iela 20, Talsi, Talsu nov., LV-3201","lat":"57.2443018502","long":"22.5910259445","magento_region_id":"456","magento_region_code":"LV-TA","magento_region_name":"Talsu novads","name_for_sorting":"Talsi"},{"id":"164","postcode":"3101","label":"Tukuma 1.pasta noda\u013ca","working_monday":"7:00 - 18:00","working_tuesday":"7:00 - 18:00","working_wednesday":"7:00 - 18:00","working_thursday":"7:00 - 18:00","working_friday":"7:00 - 18:00","working_saturday":"9:00 - 12:00","working_sunday":"-","phone":"67008001;27008001","inout":"1","region":"Tukuma raj.","city":"Tukums","area":"Tukuma nov.","district":null,"village":null,"street":"Pils iela","house":"20","zipcode":"3101","address":"Pils iela 20, Tukums, Tukuma nov., LV-3101","lat":"56.9662268998","long":"23.1615004001","magento_region_id":"457","magento_region_code":"LV-TU","magento_region_name":"Tukuma novads","name_for_sorting":"Tukums"},{"id":"200","postcode":"3615","label":"Ug\u0101les pasta noda\u013ca","working_monday":"7:00 - 14:00","working_tuesday":"7:00 - 14:00","working_wednesday":"7:00 - 14:00","working_thursday":"7:00 - 14:00","working_friday":"7:00 - 14:00","working_saturday":"-","working_sunday":"-","phone":"67008001;27008001","inout":"0","region":"Ventspils raj.","city":null,"area":"Ventspils nov.","district":"Ug\u0101les pag.","village":"Ug\u0101le","street":"R\u016bpn\u012bcas iela","house":"1","zipcode":"3615","address":"R\u016bpn\u012bcas iela 1 - 16, Ug\u0101le, Ug\u0101les pag., Ventspils nov., LV-3615","lat":"57.2754933822","long":"22.0250878943","magento_region_id":"465","magento_region_code":"LV-VE","magento_region_name":"Ventspils novads","name_for_sorting":"Ug\u0101le"},{"id":"106","postcode":"2130","label":"Ulbrokas pasta noda\u013ca","working_monday":"9:00-17:00","working_tuesday":"9:00-19:00","working_wednesday":"9:00-17:00","working_thursday":"9:00-19:00","working_friday":"9:00-17:00","working_saturday":"-","working_sunday":"-","phone":"67008001","inout":"0","region":"R\u012bgas raj.","city":null,"area":"Ropa\u017eu nov.","district":"Stopi\u0146u pag.","village":"Ulbroka","street":"Instit\u016bta iela","house":"30","zipcode":"2130","address":"Instit\u016bta iela 30, Ulbroka, Stopi\u0146u pag., Ropa\u017eu nov., LV-2130","lat":"56.9414544161","long":"24.2875566519","magento_region_id":"438","magento_region_code":"Ropa\u017eu novads","magento_region_name":"Ropa\u017eu novads","name_for_sorting":"Ulbroka"},{"id":"102","postcode":"2118","label":"Cekules pasta noda\u013ca","working_monday":"8:00-14:00","working_tuesday":"8:00-18:00","working_wednesday":"8:00-14:00","working_thursday":"8:00-14:00","working_friday":"8:00-14:00","working_saturday":"-","working_sunday":"-","phone":"67008001","inout":"0","region":"R\u012bgas raj.","city":null,"area":"Ropa\u017eu nov.","district":"Stopi\u0146u pag.","village":"Upeslejas","street":"Zah\u0101rija Stopija iela","house":"10","zipcode":"2118","address":"Zah\u0101rija Stopija iela 10, Upeslejas, Stopi\u0146u pag., Ropa\u017eu nov., LV-2118","lat":"56.9223171426","long":"24.3778446298","magento_region_id":"438","magento_region_code":"Ropa\u017eu novads","magento_region_name":"Ropa\u017eu novads","name_for_sorting":"Upeslejas"},{"id":"8","postcode":"3435","label":"Vai\u0146odes pasta noda\u013ca","working_monday":"8:00 - 13:00","working_tuesday":"8:00 - 13:00","working_wednesday":"8:00 - 13:00","working_thursday":"8:00 - 13:00","working_friday":"8:00 - 13:00","working_saturday":"-","working_sunday":"-","phone":"67008001;27008001","inout":"0","region":"Liep\u0101jas raj.","city":null,"area":"Dienvidkurzemes nov.","district":"Vai\u0146odes pag.","village":"Vai\u0146ode","street":"Br\u012bv\u012bbas iela","house":"17","zipcode":"3435","address":"Br\u012bv\u012bbas iela 17, Vai\u0146ode, Vai\u0146odes pag., Dienvidkurzemes nov., LV-3435","lat":"56.4170051075","long":"21.8555717117","magento_region_id":"367","magento_region_code":"LV-AI","magento_region_name":"Aizkraukles novads","name_for_sorting":"Vai\u0146ode"},{"id":"174","postcode":"3260","label":"Valdem\u0101rpils pasta noda\u013ca","working_monday":"7:00 - 12:00","working_tuesday":"7:00 - 12:00","working_wednesday":"7:00 - 12:00","working_thursday":"7:00 - 12:00","working_friday":"7:00 - 12:00","working_saturday":"-","working_sunday":"-","phone":"67008001;27008001","inout":"0","region":"Talsu raj.","city":"Valdem\u0101rpils","area":"Talsu nov.","district":null,"village":null,"street":"Rai\u0146a iela","house":"16","zipcode":"3260","address":"Rai\u0146a iela 16, Valdem\u0101rpils, Talsu nov., LV-3260","lat":"57.3745624663","long":"22.5934148644","magento_region_id":"456","magento_region_code":"LV-TA","magento_region_name":"Talsu novads","name_for_sorting":"Valdem\u0101rpils"},{"id":"381","postcode":"4701","label":"Valkas 1.pasta noda\u013ca","working_monday":"8:00 - 18:00","working_tuesday":"8:00 - 18:00","working_wednesday":"8:00 - 18:00","working_thursday":"8:00 - 18:00","working_friday":"8:00 - 18:00","working_saturday":"-9:00-13:00","working_sunday":"-","phone":"67008001; 27008001","inout":"1","region":"Valkas raj.","city":"Valka","area":"Valkas nov.","district":null,"village":null,"street":"Semin\u0101ra iela","house":"15","zipcode":"4701","address":"Semin\u0101ra iela 15, Valka, Valkas nov., LV-4701","lat":"57.7734148484","long":"26.0218974047","magento_region_id":"460","magento_region_code":"LV-VK","magento_region_name":"Valkas novads","name_for_sorting":"Valka"},{"id":"281","postcode":"4204","label":"Valmieras 4.pasta noda\u013ca","working_monday":"7:00- 18:00","working_tuesday":"7:00- 18:00","working_wednesday":"7:00- 18:00","working_thursday":"7:00- 18:00","working_friday":"7:00- 18:00","working_saturday":"-","working_sunday":"-","phone":"67008001; 27008001","inout":"1","region":"Valmieras raj.","city":"Valmiera","area":"Valmieras nov.","district":null,"village":null,"street":"Stacijas iela","house":"1","zipcode":"4201","address":"Stacijas iela 1, Valmiera, Valmieras nov., LV-4201","lat":"57.5344559138","long":"25.4262802335","magento_region_id":"461","magento_region_code":"LV-VM","magento_region_name":"Valmieras novads","name_for_sorting":"Valmiera"},{"id":"563","postcode":"4201","label":"Valmieras 1.pasta noda\u013ca","working_monday":"7:00 - 18:00","working_tuesday":"7:00 - 18:00","working_wednesday":"7:00 - 18:00","working_thursday":"7:00 - 18:00","working_friday":"7:00 - 18:00","working_saturday":"9:00-13:00","working_sunday":"-","phone":"67008001; 27008001","inout":"1","region":"Valmieras raj.","city":"Valmiera","area":"Valmieras nov.","district":null,"village":null,"street":"R\u012bgas iela","house":"34","zipcode":"4201","address":"R\u012bgas iela 34, Valmiera, Valmieras nov., LV-4201","lat":"57.5376044696","long":"25.4129448611","magento_region_id":"461","magento_region_code":"LV-VM","magento_region_name":"Valmieras novads","name_for_sorting":"Valmiera"},{"id":"625","postcode":"4202","label":"Valmieras 2.pasta noda\u013ca","working_monday":"7:30-17:00","working_tuesday":"7:30-17:00","working_wednesday":"7:30-17:00","working_thursday":"7:30-17:00","working_friday":"7:30-17:00","working_saturday":"-","working_sunday":"-","phone":"67008001; 27008001","inout":"0","region":"Valmieras raj.","city":"Valmiera","area":"Valmieras nov.","district":null,"village":null,"street":"Br\u012bv\u012bbas iela","house":"2A, pasta noda\u013ca","zipcode":"4202","address":"Br\u012bv\u012bbas iela 2A, pasta noda\u013ca, Valmiera, Valmieras nov., LV-4202","lat":"57.5441978987","long":"25.432215204","magento_region_id":"461","magento_region_code":"LV-VM","magento_region_name":"Valmieras novads","name_for_sorting":"Valmiera"},{"id":"552","postcode":"2136","label":"Vanga\u017eu pasta noda\u013ca","working_monday":"7:00-18:00","working_tuesday":"7:00-14:00","working_wednesday":"7:00-14:00","working_thursday":"7:00-14:00","working_friday":"7:00-14:00","working_saturday":"-","working_sunday":"-","phone":"67008001","inout":"0","region":"R\u012bgas raj.","city":"Vanga\u017ei","area":"Ropa\u017eu nov.","district":null,"village":null,"street":"Gaujas iela","house":"18","zipcode":"2136","address":"Gaujas iela 18, Vanga\u017ei, Ropa\u017eu nov., LV-2136","lat":"57.0932519506","long":"24.5449897447","magento_region_id":"438","magento_region_code":"Ropa\u017eu novads","magento_region_name":"Ropa\u017eu novads","name_for_sorting":"Vanga\u017ei"},{"id":"387","postcode":"4838","label":"Varak\u013c\u0101nu pasta noda\u013ca","working_monday":"8:00-8:45; 09:30-16:00 ","working_tuesday":"8:00-8:45; 09:30-16:00 ","working_wednesday":"8:00-8:45; 09:30-16:00 ","working_thursday":"8:00-8:45; 09:30-16:00 ","working_friday":"8:00-8:45; 09:30-16:00 ","working_saturday":"-","working_sunday":"-","phone":"67008001; 27008001","inout":"0","region":"Madonas raj.","city":"Varak\u013c\u0101ni","area":"Varak\u013c\u0101nu nov.","district":null,"village":null,"street":"R\u012bgas iela","house":"13","zipcode":"4838","address":"R\u012bgas iela 13, Varak\u013c\u0101ni, Varak\u013c\u0101nu nov., LV-4838","lat":"56.6097854778","long":"26.7526604679","magento_region_id":"462","magento_region_code":"Varak\u013c\u0101nu novads","magento_region_name":"Varak\u013c\u0101nu novads","name_for_sorting":"Varak\u013c\u0101ni"},{"id":"270","postcode":"4122","label":"Vecpiebalgas pasta noda\u013ca","working_monday":"7:30 - 13:00","working_tuesday":"7:30 - 13:00","working_wednesday":"7:30 - 13:00","working_thursday":"7:30 - 13:00","working_friday":"7:30 - 13:00","working_saturday":"-","working_sunday":"-","phone":"67008001","inout":"0","region":"C\u0113su raj.","city":null,"area":"C\u0113su nov.","district":"Vecpiebalgas pag.","village":"Vecpiebalga","street":null,"house":"Ap\u0161u Grava","zipcode":"4122","address":"\"Ap\u0161u Grava\", Vecpiebalga, Vecpiebalgas pag., C\u0113su nov., LV-4122","lat":"57.0591838218","long":"25.8206124499","magento_region_id":"387","magento_region_code":"LV-CE","magento_region_name":"C\u0113su novads","name_for_sorting":"Vecpiebalga"},{"id":"230","postcode":"3933","label":"Vecumnieku pasta noda\u013ca","working_monday":"7:30-18:00","working_tuesday":"7:30-15:00","working_wednesday":"7:30-18:00","working_thursday":"7:30-15:00","working_friday":"7:30-15:00","working_saturday":"-","working_sunday":"-","phone":"67008001","inout":"0","region":"Bauskas raj.","city":null,"area":"Bauskas nov.","district":"Vecumnieku pag.","village":"Vecumnieki","street":"R\u012bgas iela","house":"28","zipcode":"3933","address":"R\u012bgas iela 28, Vecumnieki, Vecumnieku pag., Bauskas nov., LV-3933","lat":"56.6053836421","long":"24.5232512991","magento_region_id":"380","magento_region_code":"LV-BU","magento_region_name":"Bauskas novads","name_for_sorting":"Vecumnieki"},{"id":"197","postcode":"3601","label":"Ventspils 1.pasta noda\u013ca","working_monday":"8:00 - 18:00","working_tuesday":"8:00 - 18:00","working_wednesday":"8:00 - 18:00","working_thursday":"8:00 - 18:00","working_friday":"8:00 - 18:00","working_saturday":"-","working_sunday":"-","phone":"67008001;27008001","inout":"1","region":null,"city":"Ventspils","area":null,"district":null,"village":null,"street":"Plat\u0101 iela","house":"8","zipcode":"3601","address":"Plat\u0101 iela 8, Ventspils, LV-3601","lat":"57.3934891504","long":"21.5628598386","magento_region_id":"365","magento_region_code":"LV-VEN","magento_region_name":"Ventspils","name_for_sorting":"Ventspils"},{"id":"198","postcode":"3602","label":"Ventspils 2.pasta noda\u013ca","working_monday":"8:00 -18:00","working_tuesday":"8:00 -19:00","working_wednesday":"8:00 -18:00","working_thursday":"8:00 -19:00","working_friday":"8:00 -18:00","working_saturday":"-","working_sunday":"-","phone":"67008001;27008001","inout":"0","region":null,"city":"Ventspils","area":null,"district":null,"village":null,"street":"Lidot\u0101ju iela","house":"24","zipcode":"3602","address":"Lidot\u0101ju iela 24, Ventspils, LV-3602","lat":"57.4028088872","long":"21.5906658288","magento_region_id":"365","magento_region_code":"LV-VEN","magento_region_name":"Ventspils","name_for_sorting":"Ventspils"},{"id":"457","postcode":"5237","label":"Vies\u012btes pasta noda\u013ca","working_monday":"7:00-14:00","working_tuesday":"7:00-14:00","working_wednesday":"7:00-14:00","working_thursday":"7:00-14:00","working_friday":"7:00-14:00","working_saturday":"-","working_sunday":"-","phone":"67008001","inout":"0","region":"J\u0113kabpils raj.","city":"Vies\u012bte","area":"J\u0113kabpils nov.","district":null,"village":null,"street":"Smil\u0161u iela","house":"31","zipcode":"5237","address":"Smil\u0161u iela 31 - 44, Vies\u012bte, J\u0113kabpils nov., LV-5237","lat":"56.3433955726","long":"25.5650686441","magento_region_id":"405","magento_region_code":"LV-JK","magento_region_name":"J\u0113kabpils novads","name_for_sorting":"Vies\u012bte"},{"id":"335","postcode":"4583","label":"Vi\u013cakas pasta noda\u013ca","working_monday":"8:00-14:00","working_tuesday":"8:00-14:00","working_wednesday":"8:00-14:00","working_thursday":"8:00-14:00","working_friday":"8:00-14:00","working_saturday":"-","working_sunday":"-","phone":"67008001; 27008001","inout":"0","region":"Balvu raj.","city":"Vi\u013caka","area":"Balvu nov.","district":null,"village":null,"street":"Balvu iela","house":"5","zipcode":"4583","address":"Balvu iela 5, Vi\u013caka, Balvu nov., LV-4583","lat":"57.1841624105","long":"27.6712378296","magento_region_id":"379","magento_region_code":"LV-BL","magento_region_name":"Balvu novads","name_for_sorting":"Vi\u013caka"},{"id":"12","postcode":"4650","label":"Vi\u013c\u0101nu pasta noda\u013ca","working_monday":"8:00-16:00","working_tuesday":"8:00-16:00","working_wednesday":"8:00-16:00","working_thursday":"8:00-16:00","working_friday":"8:00-16:00","working_saturday":"-","working_sunday":"-","phone":"67008001; 27008001","inout":"0","region":"R\u0113zeknes raj.","city":"Vi\u013c\u0101ni","area":"R\u0113zeknes nov.","district":null,"village":null,"street":"R\u0113zeknes iela","house":"24","zipcode":"4650","address":"R\u0113zeknes iela 24, Vi\u013c\u0101ni, R\u0113zeknes nov., LV-4650","lat":"56.5498464128","long":"26.9299594851","magento_region_id":"442","magento_region_code":"LV-RE","magento_region_name":"R\u0113zeknes novads","name_for_sorting":"Vi\u013c\u0101ni"},{"id":"445","postcode":"5239","label":"Zasas pasta noda\u013ca","working_monday":"08:00-13:00","working_tuesday":"8:00-13:00","working_wednesday":"8:00-13:00","working_thursday":"8:00-13:00","working_friday":"8:00-13:00","working_saturday":"-","working_sunday":"-","phone":"67008001","inout":"0","region":"J\u0113kabpils raj.","city":null,"area":"J\u0113kabpils nov.","district":"Zasas pag.","village":"Zasa","street":"Za\u013c\u0101 iela","house":"8","zipcode":"5239","address":"Za\u013c\u0101 iela 8, Zasa, Zasas pag., J\u0113kabpils nov., LV-5239","lat":"56.29331112","long":"25.9797886805","magento_region_id":"405","magento_region_code":"LV-JK","magento_region_name":"J\u0113kabpils novads","name_for_sorting":"Zasa"},{"id":"607","postcode":"5751","label":"Zilupes pasta noda\u013ca","working_monday":"8:00-16:00","working_tuesday":"8:00-16:00","working_wednesday":"8:00-16:00","working_thursday":"8:00-16:00","working_friday":"8:00-16:00","working_saturday":"-","working_sunday":"-","phone":"67008001; 27008001","inout":"0","region":"Ludzas raj.","city":"Zilupe","area":"Ludzas nov.","district":null,"village":null,"street":"Partiz\u0101\u0146u iela","house":"5","zipcode":"5751","address":"Partiz\u0101\u0146u iela 5, Zilupe, Ludzas nov., LV-5751","lat":"56.3881687661","long":"28.1243022965","magento_region_id":"416","magento_region_code":"LV-LU","magento_region_name":"Ludzas novads","name_for_sorting":"Zilupe"}]